id,organization_id,accessibility,admin_emails,alternate_name,description,email,languages,latitude,longitude,name,transportation,virtual,website
1,1,,,,"No description",,,47.5228935,-122.6294953,"Abraham's House - Christian Life Center","From Highway 16 take the Tremont exit.  Follow Tremont then take a right onto SE Lund Ave.  Turn Left on Bethel Ave, then right on Mitchell Rd or SE Lincoln Ave.",FALSE,
2,1,,,,"No description",trmunger@gmail.com,,47.6272734,-122.7071257,"Abraham's House","Located in the Chico Alliance Church.  From Highway 3 turn south on Chico Way NW.  Church will be located on the left past King's West School.",FALSE,
3,2,,,,"No description",donnac@myhhhh.org,,46.9779528,-123.8837609,"Personal Service Providers","Highway 101 (Sumner Ave/Hoquiam) take a left on 6th St. after the Hoquiam Bridge. Turn left on Simpson and then left on 7th.",FALSE,
4,3,,,,"No description",,,46.975212,-123.812969,"Union Gospel Mission of Grays Harbor - Heron Street Mission","Located on across the street from Jack-in-the-Box across the bridge from the Wal-Mart shopping center.",FALSE,
5,3,,,,"No description",,,46.980444,-123.819639,"Union Gospel Mission of Grays Harbor - Friendship House","Located at the end of North G St.",FALSE,
6,4,,,,"No description",info@coastalcap.org,,46.9776142,-123.8204938,"Coastal Community Action Program - Grays Harbor","Located on the corner of East 3rd and North I streets.",FALSE,
7,5,,,,"No description",,,47.6928442,-122.8994437,"Brinnon Food Bank","Located the the corner of Schoolhouse and Corey Lane in the Brinnon Booster Club.",FALSE,
8,6,,,,"No description",,,47.6504647,-122.682235,"Social Security Administration - Kitsap","Located east of the intersection of Mickelberry Rd and NW Bucklin Hill Rd across the street from Albertsons.",FALSE,
9,7,,,,"No description",info@skhelpline.org,,47.533852,-122.6265958,"South Kitsap Helpline","Located at the Port Orchard Nursery.  From Bay St take Bethel Ave south to the roundabout by Hi-Joy Bowl.  Travel east to Mile Hill Dr and take the first right into the Town Square Mall. Take the first right again onto the driveway between Ace Hardware an",FALSE,
10,7,,,,"No description",info@skhelpline.org,,47.5338467,-122.6191914,"South Kitsap Helpline - National Guard Armory","From Bethel Ave take the roundabout near Hi-Joy Bowl east onto Mile Hill Dr.  Located on the right past the Goodwill and near the intersection with Karcher Rd SE.",FALSE,
11,8,,,,"No description",bremerton@standupforkids.org,,,,"StandUp for Kids","Service does not have a physical location.",FALSE,
12,9,,,,"No description",questions@myfinancialgoals.org,,47.565546,-122.625947,"American Financial Solutions","Located in downtown Bremerton, WA, five minutes from the Ferry Terminal.  From Washington Ave turn west onto 4th Ave (one-way road).  AFS is across the street from the Roxy Theater.",FALSE,
13,9,,,,"No description",questions@myfinancialgoals.org,,47.6171169,-122.3512337,"American Financial Solutions - Seattle","Offer counseling in person by appointment in our office at 2815 2nd Avenue, Suite 280, Seattle WA 98121.",FALSE,
14,10,,,,"No description",info@teentalkingcircles.org,,47.6647391,-122.5107066,"Teen Talking Circle Project","Call for meeting location.",FALSE,
15,11,,,,"No description",mail@olympicmountainrescue.org,,47.540416,-122.7705164,"Olympic Mountain Rescue","No physical address.",FALSE,
16,12,,,,"No description",,,48.0330993,-122.7665609,"Overeaters Anonymous - Jefferson - Hadlock Fellowship Hall","Meets at the Hadlock Fellowship Hall in the Lower Level.  Located on Ness Corner Rd (Highway 116) turn at the Ness Storage sign, located behind the Horticulture Store.",FALSE,
17,12,,,,"No description",,,48.1152543,-122.7590994,"Overeaters Anonymous - Jefferson - St Paul's Episcopal Church","Meets at St Paul's Episcopal Church in Fenn House.  From E Sims Way (Highway 20) take the left onto Washington St.  Turn left onto Fillmore St.  Turn right onto Jefferson St.  Located at the intersection with Tyler St.",FALSE,
18,13,,,,"No description",,,47.525033,-122.667918,"Overeaters Anonymous - Kitsap - West Sound Treatment Center","Exit Highway 16 at Tremont/SW Old Clifton Rd. and turn west onto Tremont/SW Old Clifton Rd.  Turn right into the Port Orchard Industrial Park at Lloyd Parkway, and right onto Lumsden Rd. West Sound Treatment Center is 1 block on the right in the Fuller-Wi",FALSE,
19,13,,,,"No description",,,47.5704909,-122.69194,"Overeaters Anonymous - Kitsap - Kitsap Lake Baptist Church","From Highway 3 take the Kitsap Way exit.  Turn west onto Kitsap Way.  Turn left onto Montview Dr by Forest Lawn Cemetery.  Located up the hill at Kitsap Lake Baptist Church",FALSE,
20,13,,,,"No description",,,47.624344,-122.521407,"Overeaters Anonymous - Kitsap - Eagle Harbor Congregational Church","From Highway 305 turn right onto Winslow Way E.  Turn left onto Madison Ave S.",FALSE,
21,13,,,,"No description",,,47.6234183,-122.5224832,"Overeaters Anonymous - Kitsap - Winslow Arms Apartments","From Highway 305 turn right onto Winslow Way E.  Turn left onto Madison Ave S.  Follow to end and turn right onto Parfitt Way SW.  Turn right into Parfitt Arms Apartments.",FALSE,
22,13,,,,"No description",,,47.7357493,-122.6277753,"Overeaters Anonymous - Kitsap - St Olaf's Catholic Church","Located across the streets from the NKHS Tennis Courts in the Religious Education Building.",FALSE,
23,14,,,,"No description",ann.simpson@forksabuseprogram.org,,47.949984,-124.3873111,"Forks Abuse Program","From N Forks Ave (Highway 101)  turn west onto A St SW.  Located on the corner of A St SW and 2nd Ave.",FALSE,
24,15,,,,"No description",1107-BR@laborready.com,,47.6075396,-122.6311774,"Labor Ready","Located in the Redwood Plaza on NE Riddell Rd at the intersection with Wheaton Way.",FALSE,
25,16,,,,"No description",peninsulas211@gmail.com,,,,"Peninsulas' 2-1-1","From Highway 303 turn east onto Riddell Rd.  Turn left onto Almira Dr.  Turn left into the KMHS parking lot.",FALSE,
26,17,,,,"No description",,,46.9776217,-123.8195732,"Aberdeen Community Food Bank","Located on the corner of North I St and East 2nd St. in Aberdeen, WA",FALSE,
27,18,,,,"No description",,,47.214017,-123.101458,"Veterans Service Office - Mason County","Located in Memorial Hall on at the corner of 2nd and Franklin.",FALSE,
28,19,,,,"No description",harkovitchd@bgcsps.org,,47.4143095,-122.8435512,"Boys and Girls Club of South Puget Sound - North Mason","Next to NMSD Administration building and PACE Academy.",FALSE,
29,20,,,,"No description",carenet@hctc.com,,47.224378,-123.121308,"Care Net Pregnancy Center of Mason County","From Olympic Highway N take East on ""J"" St. (at Shelton Vet Clinic) and right left onto Jefferson St. 
",FALSE,
30,21,,,,"No description",,,46.9819757,-123.594535,"Children's Advocacy Center of Grays Harbor","From E Pioneer Ave turn north on S Academy St.  Turn left on E Broadway Ave.",FALSE,
31,22,,,,"No description",,,47.2250535,-123.1262147,"DSHS - Division of Children and Family Services - Mason","From Highway 101 turn east onto E Wallace Kneeland Blvd, then turn right onto Olympic Highway N.",FALSE,
32,23,,,,"No description",tammy.engel@gmail.com,,46.277053,-123.948115,"Friends of the Chinook School","Located along Highway 101.  Parking available on Evelyn Rd.",FALSE,
33,24,,,,"No description",sheesuneek@gmail.com,,47.11395,-124.171413,"Copalis Community Church Food Bank","From Highway 109 in Copalis near Hopkins St.",FALSE,
34,25,,,,"No description",dvcenter@techline.com,,46.975892,-123.870736,"Domestic Violence Center of Grays Harbor","Located on the corner of Sumner Ave and 23rd St.",FALSE,
35,26,,,,"No description",,,48.0245551,-122.764754,"Jefferson County Sheriff's Office","From Port Hadlock take Chimacum Rd south.  Turn left onto Elkins Rd.",FALSE,
36,27,,,,"No description",faithinaction@wavecable.com,,47.4514183,-122.8264432,"Faith in Action West Sound","Call for more information.",FALSE,
37,27,,,,"No description",FaithinAction@wavecable.com,,47.454747,-122.826399,"Faith in Action Thrift Store","From Highway 3 turn onto Old Belfair Highway (Highway 300).  Turn right after NE Old Clifton Rd.",FALSE,
38,28,,,,"No description",info@habitatmasonwa.org,,47.2121711,-123.1020325,"Habitat for Humanity of Mason County","Located near the KMAS Radio Station.",FALSE,
39,28,,,,"No description",restoremgr@habitatmasonwa.org,,47.2119996,-123.1017572,"Habitat for Humanity of Mason County - Shelton Habitat Store","Located at the corner of W Cota and S 2nd St by Sentry Mini Storage.",FALSE,
40,28,,,,"No description",,,47.4387574,-122.835235,"Habitat for Humanity of Mason County - Belfair Habitat Store","Located on Highway 3 south of the Theler Community Center.",FALSE,
41,29,,,,"No description",info@harmonyhill.org,,47.3484233,-123.0619152,"Harmony Hill Retreat Center","From the north, Harmony Hill is on the left 5 miles past Twanoh State Park just before you reach Alderbrook Resort. From the south, Harmony Hill is on the right approximately one ""city block"" past Alderbrook Resort.",FALSE,
42,30,,,,"No description",,,47.213873,-123.108794,"Health Care Center","Located on the corner of W Railroad Ave and N 8th St.",FALSE,
43,31,,,,"No description",rkthomp@hctc.com,,47.405982,-123.146166,"Hood Canal Food Bank","Located in Hoodsport Community Hall Adjacent to Fire District 1 Fire Station, One block W of Lumbermens in Hoodsport.",FALSE,
44,32,,,,"No description",,,46.9760643,-123.8863064,"Hoquiam Food and Clothing Bank","Located on the corner of 8th and K Street on the Backside of Masonic Bldg.",FALSE,
45,33,,,,"No description",info@humanesocietyofmasoncounty.com,,47.4402241,-122.8345655,"Humane Society of Mason County","Located off Highway 3 in the Theler building.",FALSE,
46,34,,,,"No description",,,47.2331028,-123.9592298,"Humptulips Food Bank","From Highway 101 go west on Kirkpatrick Rd, turn right on McAfee Rd.",FALSE,
47,35,,,,"No description",webmaster@sp-mc.com,,47.0069302,-123.3918358,"Summit Pacific Medical Center","From WA-8 West take the Elma High 12 exit.  Turn north, then left onto E Main St.",FALSE,
48,35,,,,"No description",,,47.0558851,-123.2604465,"Summit Pacific Medical Center - Mark Reed Healthcare Clinic","From WA-8 West (toward Montesano) or WA-8 East (toward Olympia).  Take Mox Chehalis Road ramp toward McCleary.  At the Stop Sign, Turn Left onto William-McCleary Road , which becomes S 3rd Street.  Go past the school and down the hill into downtown.  Turn",FALSE,
49,35,,,,"No description",webmaster@sp-mc.com,,47.004754,-123.392523,"Summit Pacific Medical Center - Elma Family Medicine","From WA-8 West take the Elma High 12 exit.  Turn north, then left onto E Main St.",FALSE,
50,36,,,,"No description",theler@hctc.com,,47.4402241,-122.8345655,"Mary E Theler Community Center","Located on State Route 3 near the south end of Belfair.",FALSE,
51,37,,,,"No description",tammiw@co.mason.wa.us,,47.2572263,-123.150032,"Mason County Emergency Management","On Highway 101 travel north of the Mason County Fairgrounds and Sanderson Airfield.  TUrn left onto W Dayton Airport Rd.  Turn right onto W Public Works Dr.",FALSE,
52,38,,,,"No description",,,47.2159703,-123.1056284,"Mason County Public Health","Located on the corner of N 6th and W Pine Streets.",FALSE,
53,38,,,,"No description",,,47.2159703,-123.1056284,"Mason County Public Health - Department of Community and Family Health","Located on the corner of N 6th and W Pine Streets.",FALSE,
54,39,,,,"No description",staff@soundlearning.co,,47.2128684,-123.1010605,"Sound Learning","Located on the corner of 2nd St and Railroad Ave in downtown Shelton.",FALSE,
55,40,,,,"No description",info@mcsac.net,,47.2072338,-123.1344834,"Mason County Senior Activities Association","From W Railroad Ave / W Shelton Matlock Rd / Highway 101 interchange turn right onto W Hulbert Rd.  Turn left onto Sentry Dr.",FALSE,
56,41,,,,"No description",dnielsen@hcc.net,,47.2055843,-123.0987067,"Crossroads Housing","Located off Olympic Highway S (Highway 3) between Fairmount and E Harvard Avenues.",FALSE,
57,42,,,,"No description",mcta@masontransit.org,,47.2407032,-123.1010861,"Mason County Transit Authority","From Olympia, Take Hwy 101 to Wallace-Kneeland Exit.  Turn Right on Wallace-Kneeland Blvd.  Wallace-Kneeland Blvd. turns into John's Prairie Road at the 4-way stop.  Mason Transit is located on the right hand side approximately 1 mile forward.",FALSE,
58,43,,,,"No description",,,47.214112,-123.0997311,"Mason County Youth Programs","Located across from Dairy Queen.",FALSE,
59,44,,,,"No description",,,47.227222,-123.115678,"Mason General Hospital - Mountain View Women's Health Clinic","Located on Kati Court between East K St and N Sherwood Ln near Mason General Hospital.",FALSE,
60,44,,,,"No description",,,47.225613,-123.1137451,"Mason General Hospital - Shelton Family Medicine","Located across Mountain View Dr from Mason General Hospital.",FALSE,
61,44,,,,"No description",,,47.2265196,-123.1131857,"Mason General Hospital - Shelton Orthopedics","Located next to Shelton Family Medicine and Mason General Hospital.",FALSE,
62,44,,,,"No description",webmaster@olympicphysicians.com,,47.2247919,-123.1110547,"Mason General Hospital - Olympic Physicians","Located next to Mason General Hospital across N 13th St.",FALSE,
63,44,,,,"No description",,,47.2262843,-123.1118892,"Mason General Hospital - Family Health","Located across N 13th St From Mason General Hospital.",FALSE,
64,44,,,,"No description",,,47.227222,-123.115678,"Mason General Hospital - Eye Clinic","Located on Kati Court between East K St and N Sherwood Ln near Mason General Hospital.",FALSE,
65,44,,,,"No description",,,47.225613,-123.1137451,"Mason General Hospital","Located off N 13th St.",FALSE,
66,44,,,,"No description",,,47.2262843,-123.1118892,"Mason General Hospital - Ankle and Foot Clinic","Located across N 13th St from Mason General Hospital.",FALSE,
67,44,,,,"No description",,,47.224824,-123.110346,"Mason General Hospital - Oakland Bay Pediatrics","From N 13th St turn away from Mason General Hospital onto Professional Way.",FALSE,
68,45,,,,"No description",,,47.2357711,-123.4074129,"Matlock Food Bank","Located in the Matlock Community Church south of the Matlock-Brady Rd and W Shelton Matlock Rd intersection.",FALSE,
69,46,,,,"No description",kymyates@mcmo.org,,47.2226519,-123.119914,"Mason County Medic One","Located a the corner of Jefferson and East G Streets.",FALSE,
70,47,,,,"No description",,,46.9825369,-123.6026181,"Montesano Food Bank","From Olympic Highway 12 take the S Main St exit north.  Turn left on W Spruce Ave.",FALSE,
71,48,,,,"No description",nmfoodbank998528@wavecable.com,,47.434893,-122.841434,"North Mason Food Bank","Located in Belfair, south of SW Lake Flora Rd and north of State Route 106 next to the Belfair Water District Bldg.",FALSE,
72,49,,,,"No description",sheltoncampus@olympic.edu,,47.2292386,-123.1107754,"Olympic College - Mason","Located on W Alpine Way off E Brockerdale Rd.  Located north of Mason General Hospital.",FALSE,
73,50,,,,"No description",,,47.2242292,-124.2089421,"Pacific Beach Food Bank","Distribution takes place in the parking lot of the Fire District #8.",FALSE,
74,51,,,,"No description",,,47.2250535,-123.1262147,"Planned Parenthood of the Great Northwest - Mason","From Highway 101 take E Wallace-Kneeland Blvd and turn onto Olympic Highway N.",FALSE,
75,52,,,,"No description",svdprv@yahoo.com,,46.336333,-124.054431,"St Vincent de Paul - Pacific","Operates out of St Mary's Catholic Church.  Call for assistance.",FALSE,
76,52,,,,"No description",svdprv@yahoo.com,,46.3083839,-124.043054,"Saint Vincent DePaul Society - Food Bank","The food bank entrance is located across from the Ilwaco Columbia Pacific Museum on the 200 block of Lake St.  A sign will be posted when the food bank is open.",FALSE,
77,53,,,,"No description",,,47.2117614,-123.1015001,"Saints Pantry Food Bank","Located near the corner of 2nd and Cota Streets.",FALSE,
78,54,,,,"No description",,,47.212609,-123.104528,"First Baptist Church","From W Railroad Ave take 4th St south one block to W Cota St.",FALSE,
79,55,,,,"No description",,,47.2236979,-123.114059,"Shelton United Methodist Church","Located on the corner of King St and East F St near Mason General Hospital.",FALSE,
80,56,,,,"No description",,,47.3284722,-123.1542418,"Skokomish Indian Tribe - Higher Education Department","From Highway 101 turn onto Highway 106 by the Hood Canal School District.  Turn right onto N Reservation Rd.",FALSE,
81,56,,,,"No description",,,47.3283303,-123.1542009,"Skokomish Indian Tribe - Skokomish Public Safety","From Highway 101 turn east onto Highway 106, then turn north onto N Reservation Rd.",FALSE,
82,56,,,,"No description",,,47.3280511,-123.1545381,"Skokomish Indian Tribe - Skokomish Head Start and Childcare","From Highway 101 turn onto Highway 106 by the Hood Canal School District.  Turn right onto N Reservation Rd.",FALSE,
83,56,,,,"No description",,,47.3221601,-123.1456352,"Skokomish Indian Tribe - Tribal Center","From Highway 101 turn onto Highway 106 by the Hood Canal School District.  Turn left onto N Tribal Center Rd.",FALSE,
84,56,,,,"No description",,,47.3258853,-123.1507135,"Skokomish Indian Tribe - Tuwaduq Family Services","From Highway 101 turn onto Highway 106 by the Hood Canal School District.  Turn left onto N Tribal Center Rd.",FALSE,
85,56,,,,"No description",,,47.3223533,-123.1460626,"Skokomish Indian Tribe - Skokomish Health Clinic","From Highway 101 turn onto Highway 106 by the Hood Canal School District.  Turn left onto N Tribal Center Rd.",FALSE,
86,57,,,,"No description",,,47.2118759,-123.101244,"Son Rise Outreach","Located by W Cota and 2nd Streets.",FALSE,
87,58,,,,"No description",,,47.124049,-123.083576,"South Puget Intertribal Planning Agency - Mason","McCleary exit from 101 North travel east to top of the hill.",FALSE,
88,59,,,,"No description",turningpointe@earthlink.net,,,,"Turning Pointe - Domestic Violence Services","Call for more information.",FALSE,
89,60,,,,"No description",,,46.6812509,-123.7359275,"Willapa Behavioral Health - North Pacific County Office","Located on Ocean Ave (Highway 101) with Valley View Health Center.",FALSE,
90,60,,,,"No description",,,46.3667638,-124.0536816,"Willapa Behavioral Health","North on Pacific Ave between Pioneer Road and 23rd Street.",FALSE,
91,61,,,,"No description",,,46.6605072,-123.789868,"Willapa Harbor Ministerial Association - Pennywise Thrift Shop","Located on the corner of 2nd and Blake Streets.",FALSE,
92,61,,,,"No description",,,46.6357403,-123.6034682,"Willapa Harbor Ministerial Association","No physical location.",FALSE,
93,61,,,,"No description",,,46.6939078,-123.739802,"Willapa Harbor Ministerial Association - Food Pantry","Located at the corner of Park and Larch.  Door is on the side of the Riverside Boutique.",FALSE,
94,62,,,,"No description",dewall@wsu.edu,,47.214975,-123.103716,"WSU - Cooperative Extension, Mason County","Located behind Olsen Furniture. On the corner of 4th and Cedar Streets.",FALSE,
95,63,,,,"No description",info@kitsaphistory.org,,47.5659432,-122.6263236,"Kitsap County Historical Society","From Washington Ave turn onto 4th St (one-way street).  Located on the right near the end of the block between the Roxy and the Amy Burnett Gallery.",FALSE,
96,64,,,,"No description",boilerroommanagerpt@gmail.com,,48.1149939,-122.7546749,"Boiler Room","Located in downtown Port Townsend.",FALSE,
97,65,,,,"No description",POLions1967@hotmail.com,,47.5248539,-122.5788392,"Port Orchard Lions","Club meets at 6:30 pm at Subway:
435 SW Sedgwick Rd, Port Orchard, WA 98367
It is good to call to ensure a special occasion hasn't changed the time/place.",FALSE,
98,65,,,,"No description",lynjac@att.net,,46.8511059,-122.4550248,"Lions Multiple District 19 - Cascades Camp and Conference Center","Located at Cascades Camp and Conference Center.  From Yelm take Bald Hills SE Rd south.  Turn left at the Bald Hills Fire Dept onto Peissner Rd SE.",FALSE,
99,65,,,,"No description",,,47.65805,-122.7120272,"Silverdale Sunrise Lions","It is good to call to ensure a special occasion hasn't changed the time/place.",FALSE,
100,65,,,,"No description",infopoulsbolions@wavecable.com,,47.735928,-122.6465372,"Poulsbo Evening Pride Branch","Meets in the Religious Education Building at St Olaf Church in Poulsbo on the 1st and 3rd Thursdays at 6:30pm.
Call to ensure a special occasion hasn't changed the time/place.",FALSE,
101,65,,,,"No description",intruder510@gmail.com,,47.735928,-122.6465372,"Poulsbo Noon Lions","Lions Club meets at the 1st Lutheran Church in Poulsbo every Thursday at Noon.
It is good to call to ensure a special occasion hasn't changed the time/place.",FALSE,
102,65,,,,"No description",bremertoncentrallions@gmail.com,,47.5685263,-122.6397033,"Bremerton Central Lions","Meets every Wednesday at Noon at Ambrosia Catering.
It is good to call to ensure a special occasion hasn't changed the time/place.",FALSE,
103,65,,,,"No description",,,47.6355461,-122.6447815,"Lions Club - Kitsap","No physical address.",FALSE,
104,65,,,,"No description",carsonsfc@aol.com,,47.65805,-122.7120272,"Silverdale Dandy Lions","2nd and 4th Thursday at 6:45 PM at All Star Lanes in Silverdale, WA
It is good to call to ensure a special occasion hasn't changed the time/place.",FALSE,
105,66,,,,"No description",portangeleslions@gmail.com,,47.9506586,-123.3456072,"Lions Club - Port Angeles","No physical location.",FALSE,
106,66,,,,"No description",,,47.962306,-124.372811,"Lions Club - Forks","No physical location.",FALSE,
107,66,,,,"No description",,,48.0217704,-123.1273844,"Lions Club - Sequim Valley Lions","Call for more information.",FALSE,
108,67,,,,"No description",info@prskitsap.org,,47.6072244,-122.6276561,"Pregnancy Resource Center","Located on State Route 303 on Wheaton Way on the corner of Sheridan Rd, across the street from Albertsons.",FALSE,
109,68,,,,"No description",kitsappflag@yahoo.com,,47.632771,-122.651159," Kitsap PFLAG","Meets at the Family of God Lutheran Church at the corner of Central Valley and Fairgrounds roads.",FALSE,
110,69,,,,"No description",director@sharenetfoodbank.org,,47.799288,-122.5777254,Sharenet,"The food bank is located off Bond Rd NE behind Joe's Automotive",FALSE,
111,69,,,,"No description",sharenetdirector@centurytel.net,,47.7983025,-122.5089141,"Sharenet - Bayside Community Church","From Highway 104 turn right onto NE West Kingston Rd.  Turn right onto Barber Cut Off Rd.",FALSE,
112,70,,,,"No description",,,47.4692099,-122.601144,"Spirit of Life Lutheran Church","Located on the lower level of Spirit of Life Lutheran Church.",FALSE,
113,71,,,,"No description",,,48.084018,-123.114555,"Overeaters Anonymous - Clallam - St Luke's Episcopal Church","Location varies, call for meeting times and locations.",FALSE,
114,71,,,,"No description",,,48.100656,-123.436286,"Overeaters Anonymous - Clallam - St Andrews Episcopal Church","Follow Highway 101 and turn left onto Race St. Turn right on Park Ave by the First Christian Church.  Follow E Park Ave 1/2 mile up first left side driveway after National Park.",FALSE,
115,71,,,,"No description",,,48.1102626,-123.4245818,"Overeaters Anonymous - Clallam - Bethany Pentecostal Church","From E Front Street or E 1st St (Highway 101) turn south onto S Francis St.  Located at the intersection with E 5th St.",FALSE,
116,72,,,,"No description",,,47.567514,-122.629871,"Bremerton Housing Authority","Located on the corner of 6th St and Park Ave.",FALSE,
117,73,,,,"No description",,,47.3129497,-123.4703367,"A Gift For Special Children","Will meet with clients in their own homes or at a convenient location.",FALSE,
118,74,,,,"No description",thedoghouse3091@hotmail.com,,47.269582,-123.096533,"Adopt a Pet","On E Brockdale Rd travel north of Island Lake and turn right on E Jensen Rd.",FALSE,
119,75,,,,"No description",joel@myhhhh.org,,46.978131,-123.884177,"Harbors Home Health and Hospice","Located on the corner of 7th and Levee St.",FALSE,
120,76,,,,"No description",webmaster@dist10.org,,47.65805,-122.7120272,"Alcoholics Anonymous District 10","No physical office.  Call for meeting locations.",FALSE,
121,77,,,,"No description",mainoffice@faithadventure.com,,47.506963,-122.6086908,"Adventure of Faith Church","Turn north on Jackson Ave SE from SE Sedgwick Rd.",FALSE,
122,78,,,,"No description",standrew@olypen.com,,48.100377,-123.435538,"St. Andrew's Place","Follow Highway 101 and turn left onto Race St. Turn right on Park Ave by the First Christian Church.  Follow E Park Ave 1/2 mile up first left side driveway after National Park.",FALSE,
123,79,,,,"No description",compass@compassmin.org,,47.6072244,-122.6276561,"Compassionate Ministries","From Wheaton Way (Highway 303) Turn east on Riddell Rd, then left into the business center.",FALSE,
124,80,,,,"No description",,,46.975661,-123.8383924,"Sea Mar Community Health Center - Grays Harbor","Located on Sumner Ave (Highway 101) between Martin and Conger Streets.",FALSE,
125,80,,,,"No description",,,47.0019942,-124.1611764,"Sea Mar Community Health Center - Ocean Shores","From Highway 109 turn left onto WA-115.  Turn left onto Point Brown Ave.  Clinic will be located on the right.",FALSE,
126,80,,,,"No description",,,46.9756897,-123.8386609,"Sea Mar Community Health Center - Dental Clinic","Located on Sumner Ave (Highway 101) between Martin and Conger Streets.",FALSE,
127,80,,,,"No description",,,47.0035047,-123.4199933,"Sea Mar Community Health Center - Grays Harbor - Maternity Support Services","Located on West Main between 15th and 16th Streets.",FALSE,
128,80,,,,"No description",,,47.0125035,-124.1660797,"Galilean Chapel","Located at the Galilean Chapel.",FALSE,
129,81,,,,"No description",,,46.9744303,-123.8870752,"Grays Harbor County Crisis Clinic","From Simpson Ave (Highway 101) turn south onto 8th St.",FALSE,
130,82,,,,"No description",jodie.jones@usw.salvationarmy.org,,46.9738876,-123.8190027,"Salvation Army - Aberdeen","Located on W Wishkah (Highway 101) between South K and South Broadway Streets.",FALSE,
131,82,,,,"No description",,,46.974044,-123.819035,"Salvation Army - Thrift Store","Located on W Wishkah (Highway 101) between South K and South Broadway Streets.",FALSE,
132,83,,,,"No description",uwgh@techline.com,,46.975516,-123.81714,"United Way of Grays Harbor County","Located near E Market St and S Broadway St.",FALSE,
133,84,,,,"No description",,,,,"G.M. Lauridsen Charity Trust Fund","No physical location.",FALSE,
134,85,,,,"No description",ibc@indbible.org,,48.118747,-123.431664,"Independent Bible Church","Located on S Lincoln St between E Front and E 1st streets.",FALSE,
135,85,,,,"No description",ibc@indbible.org,,48.0937515,-123.4449014,"Independent Bible Church - Family Life Center","Located on E Ahlvers at the top of Laurel St.",FALSE,
136,86,,,,"No description",jacob.wischoff@thecoffeeoasis.com,,47.565239,-122.631196,"Coffee Oasis","Located on Burwell St between Warren and Park Ave.",FALSE,
137,86,,,,"No description",paul.morris@thecoffeeoasis.com,,47.541863,-122.6358219,"Coffee Oasis - Port Orchard","Located next to the Olde Central Antique Mall near the intersection of Bay St and Sidney Ave.",FALSE,
138,86,,,,"No description",,,47.7363816,-122.6390575,"Coffee Oasis - Poulsbo",,FALSE,
139,87,,,,"No description",ffsp.cnrnw@navy.mil,,47.6890303,-122.7033204,"*Main Site  - Fleet and Family Support Program - Bangor Blue Building","From Highway 3 turn onto Trigger Ave.  Pass through the gate and turn right onto Scorpion Ave.  Turn left onto Barbel St.",FALSE,
140,87,,,,"No description",ffsp.cnrnw@navy.mil,,47.6979004,-122.6948943,"Fleet and Family Support Center - Bangor Gold Building ","From Highway 3 turn onto Main Gate Naval Base Kitsap Bangor. Pass through the gate and turn left onto Hunley Road. Turn right onto Tautog Circle.",FALSE,
141,88,,,,"No description",,,48.2623424,-124.3070731,"Clallam County PUD - Clallam Bay / Sekiu",,FALSE,
142,88,,,,"No description",,,47.950826,-124.383967,"Clallam County PUD - Forks",,FALSE,
143,88,,,,"No description",,,48.075385,-123.085716,"Clallam County PUD - Sequim",,FALSE,
144,88,,,,"No description",,,48.1051948,-123.3876853,"Clallam County PUD",,FALSE,
145,89,,,,"No description",,,47.5669819,-122.6257395,"Kitsap Public Health District","Located on the corner of 6th St and Pacific Ave, in the Norm Dicks Government Center on the 3rd level.",FALSE,
146,90,,,,"No description",,,48.111515,-123.43351,"Alzheimer's Caregivers Support Group","Located in the Port Angeles Senior Center on the SW corner of 7th and Peabody Streets.",FALSE,
147,91,,,,"No description",ckfoodbank@silverlink.net,,47.649113,-122.699211,"Central Kitsap Food Bank","Located on Anderson Hill Rd about half way between Central Kitsap High School and Silverdale Way.",FALSE,
148,92,,,,"No description",serenity@olypen.com,,48.1214215,-123.4889638,"Serenity House of Clallam County - Administrative Office","Located on W 18th Street near the corner 'N' Street.",FALSE,
149,92,,,,"No description",westendvista@yahoo.com,,47.9485524,-124.3930238,"Serenity House Housing Resource Center - Forks","From N Forks Ave (Highway 101) turn west onto Bogachiel Way  Across from the hospital, turn left onto Founders Way, office is in Burke Place Apartments, on the right.",FALSE,
150,92,,,,"No description",sequimhrc@yahoo.com,,48.0796892,-123.1154365,"Serenity House Housing Resource Center - Sequim","In Serenity Square across from Serenity House Thrift Store.",FALSE,
151,92,,,,"No description",serenity@olypen.com,,48.123246,-123.492111,"Serenity House of Clallam County - Single Adult Services","From W Front St take the Tumwater Truck Rd (Highway 117).  Turn right onto W Lauridsen Blvd.  Turn right onto South L St.  Turn left onto W 18th St.  Shelter is located on the right after passing South N St.",FALSE,
152,92,,,,"No description",portangeleshrc@yahoo.com,,48.115394,-123.425538,"Serenity House Housing Resource Center - Port Angeles","Located on the right-hand side of First St. (1-way eastbound) between Vine and Albert Streets.",FALSE,
153,92,,,,"No description",serenity@olypen.com,,48.1156935,-123.4261767,"Serenity House of Clallam County - Serenity Thrift Store - Port Angeles","Located on the corner of W 1st and S Vine Streets across from the Post Office.",FALSE,
154,92,,,,"No description",serenity@olypen.com,,48.079676,-123.1144155,"Serenity House of Clallam County - Serenity Thrift Store - Sequim","Located in Serenity Square near the landmark grain elevator tower.",FALSE,
155,93,,,,"No description",alpost245vso@gmail.com,,47.7360031,-122.6467981,"American Legion - Post 245","From Front St turn north on Jensen Way NE.

From NE Iverson turn south on Jensen Way NE.",FALSE,
156,94,,,,"No description",vsovfwpost2669@gmail.com,,47.5416551,-122.6366816,"Veterans of Foreign Wars - VFW Post 2669","Located on Bay Street near Sidney Ave.",FALSE,
157,94,,,,"No description",info@vfwpost239.org,,47.5621143,-122.6663758,"Veterans of Foreign Wars - VFW Post 239","Take Kitsap Way to National Ave.  Turn on the Burwell Street, then immediately on Dora Ave.",FALSE,
158,95,,,,"No description",,,48.0121969,-122.7770702,"Chimacum School District","Located off Highway 19 in Chimacum.",FALSE,
159,96,,,,"No description",,,47.5890669,-122.6307233,"Meals on Wheels Kitsap","Meal sites are offered throughout the county.  Call for more information.",FALSE,
160,97,,,,"No description",,,47.6355461,-122.6447815,"Compassionate Friends","From Highway 303 take the Ridgetop Ave exit and turn south.  Turn into the parking lot for Harrison Silverdale.",FALSE,
161,98,,,,"No description",agapeunlimted@comcast.net,,47.5624427,-122.6790938,"Agape Unlimited","Located on Auto Center Way.  Turn onto Katy Penman, the street with a dead end sign.",FALSE,
162,99,,,,"No description",carynw@alsa-ec.org,,47.6536234,-122.6897156,"ALS Peninsula Support Group - Silverdale","Meets at the Silverdale United Methodist Church library.",FALSE,
163,100,,,,"No description",,,47.5372693,-122.6377052,"Kitsap County Courthouse","In the courthouse near Bay St.",FALSE,
164,100,,,,"No description",,,47.520653,-122.665616,"Kitsap County Government - Juvenile Services","From Highway 16 exit west on the Tremont Exit to SW Old Clifton Rd.",FALSE,
165,101,,,,"No description",,,48.1122743,-123.4381435,"NAMI of Clallam County - Peninsula Behavioral Health","Located on E 8th St by S Lincoln St (Highway 101).",FALSE,
166,101,,,,"No description",NAMIofClallamCounty@gmail.com,,47.9506586,-123.3456072,"National Alliance on Mental Illness of Clallam County","No physical location.",FALSE,
167,101,,,,"No description",NAMIofClallamCounty@gmail.com,,48.1152561,-123.4150459,"NAMI of Clallam County - Olympic Medical Center - Linkletter Hall","Located on the lower level of Olympic Medical Center.",FALSE,
168,101,,,,"No description",NAMIofClallamCounty@gmail.com,,48.0903599,-123.113087,"NAMI of Clallam County - Sequim Community Church","Located in the Sequim Community Church.  From Old Olympic Highway turn south onto N 5th Ave.",FALSE,
169,102,,,,"No description",namijeffco@yahoo.com,,48.105899,-122.803778,"National Alliance on Mental Illness of Jefferson County","Located at Jefferson Mental Health near the Goodwill.  From W Sims Way (Highway 20) turn north on Cliff St, then left on S Park Ave, then right on W Park Ave.",FALSE,
170,103,,,,"No description",,,47.732768,-122.640008,"NAMI - Hostmark Community Center","From Highway 305 turn west (toward the marina) on NE Hostmark St.",FALSE,
171,103,,,,"No description",,,47.63369,-122.5178085,"NAMI - The Doctors Clinic - Bainbridge Island","From Highway 305 turn west onto NE High School Rd.  Turn left onto Hildebrand Ln NE.",FALSE,
172,103,,,,"No description",,,47.585464,-122.6289211,"NAMI - St. Paul's Episcopal Church","From Warren Ave north of the Warren Ave bridge turn east onto Callahan Dr.",FALSE,
173,103,,,,"No description",,,47.6331557,-122.5172948,"NAMI - Home Street Bank Building","Located in the Home Street Bank close to the Safeway Shopping Center.",FALSE,
174,103,,,,"No description",,,47.651566,-122.677655,"NAMI - Doctor's Clinic - Cavalon Place","Located in the Doctor's Clinic Cavalon Place between Ridgetop and Bucklin Hill Rd.",FALSE,
175,103,,,,"No description",info@namikitsap.org,,47.5940141,-122.6200119,"National Alliance on Mental Illness of Kitsap County","No physical location.",FALSE,
176,104,,,,"No description",helpline@helplinehouse.org,,47.6309442,-122.5188643,"Bainbridge Island Helpline House","From Winslow Way E turn north on Eriksen Ave NE.  Turn west onto Knechtel Way NE.",FALSE,
177,105,,,,"No description",,,47.6366543,-122.5221717,"Bainbridge Island School District - Commodore Options School","Located next to Bainbridge High School.",FALSE,
178,105,,,,"No description",,,47.605845,-122.535242,"Bainbridge Island School District - Blakely Elementary School","Located at the intersection of Blakley Ave NE and NE Baker Hill Rd.",FALSE,
179,105,,,,"No description",,,47.6382803,-122.5219551,"Bainbridge Island School District - Ordway Elementary School","From Highway 305 tun west onto NE High School Blvd.  Take the roundabout north.",FALSE,
180,105,,,,"No description",,,47.6451667,-122.5288868,"Bainbridge Island School District - Woodward Middle School","From Highway 305 turn onto Sportsman Club Rd NE.",FALSE,
181,105,,,,"No description",pkeyes@bainbridge.wednet.edu,,47.6382803,-122.5219551,"Bainbridge Island School District","Located at the Bainbridge Island School District campus off Madison Ave N.",FALSE,
182,105,,,,"No description",,,47.6365934,-122.5242641,"Bainbridge Island School District - Bainbridge High School","From Highway 305 turn west onto NE High School Rd.  High School is on the right after passing straight through the roundabout.",FALSE,
183,105,,,,"No description",,,47.648463,-122.5271806,"Bainbridge Island School District - Sonoji Sakai Intermediate School","From Highway 305 turn onto Sportsman Club Rd NE.",FALSE,
184,105,,,,"No description",,,47.678275,-122.522491,"Bainbridge Island School District - Wilkes Elementary School","From Highway 305 turn east onto NE Day Rd.  Located on the corner of NE Day Rd and Madison Ave NE.",FALSE,
185,106,,,,"No description",,,47.6259014,-122.5176317,"Bainbridge Island Historical Society","From the Bainbridge Island Ferry travel north and turn left on Winslow Way E. Turn right on Ericksen Ave NE, Historical Society on left side of street.",FALSE,
186,107,,,,"No description",PoliceDept@ci.bainbridge-isl.wa.us,,47.6246042,-122.5137074,"Bainbridge Island Police Department","On the southwest corner of Winslow Way and Highway 305, just north of the ferry terminal.",FALSE,
187,108,,,,"No description",,,47.5714946,-122.6108691,"Bremerton Senior Center","From the Manette Bridge travel east on Harkins St, turn south on Pitt Ave, then turn east again on E 11th St.  Then turn north on Nipsic Ave.",FALSE,
188,109,,,,"No description",admin@nwrems.org,,47.6241767,-122.6251845,"Kitsap DUI Victims Panel","Meets at the Hillcrest Assembly of God across from Wal-Mart on Wheaton Way/Highway 303.",FALSE,
189,110,,,,"No description",groyal@co.clallam.wa.us,,48.1155739,-123.4337165,"Clallam County 4-H","Located in the Clallam County Courthouse.  From either East Front or 1st Street, turn south on Lincoln Ave or south on Peabody St to 4th St.",FALSE,
190,111,,,,"No description",info@weareugn.org,,48.040016,-122.785263,"United Good Neighbors","Located in the Shold Business Park off Rhody Dr (Highway 19).",FALSE,
191,112,,,,"No description",info@unitedwayclallam.org,,48.118667,-123.433535,"United Way of Clallam County","Located at the intersection of W 1st and N Laurel streets.",FALSE,
192,113,,,,"No description",dlfoote@unitedwaykitsap.org,,47.5655971,-122.6294023,"United Way of Kitsap County","Located on 4th Street next to the SeeFilm movie theater.",FALSE,
193,114,,,,"No description",mdonoghue@cfsd.wednet.edu,,48.3639959,-124.6228589,"Cape Flattery School District - Neah Bay School","In Neah Bay Highway 112 will become Bay VIew Ave.  Turn left on Portage, right on Woodland Ave, then left onto Deer Street.",FALSE,
194,114,,,,"No description",sdemko@cfsd.wednet.edu,,48.3101598,-124.4433973,"Cape Flattery School District","From Port Angeles take Highway 101 past Crescent Lake.  Take highway 113 at Sappho.  Highway 113 turns into Highway 112.  Pass through Clallam Bay and Sekiu.",FALSE,
195,114,,,,"No description",kgregory@cfsd.wednet.edu,,48.2515708,-124.2601482,"Cape Flattery School District - Clallam Bay School","From Port Angeles take Highway 101 past Crescent Lake.  Take highway 113 at Sappho.  Highway 113 turns into Highway 112.  In Clallam Bay the Clallam Bay School is located across from the public library.",FALSE,
196,115,,,,"No description",,,47.6751395,-122.6650011,"Central Kitsap School District - Emerald Heights Elementary","From Ridgetop Blvd turn onto NE Pinnacle Ct.",FALSE,
197,115,,,,"No description",,,47.6286968,-122.7541129,"Central Kitsap School District - Klahowya Secondary School","From Highway 3 take the Newberry Hill Rd exit west. Turn left at the Klahowya School sign.",FALSE,
198,115,,,,"No description",,,47.6299315,-122.6477392,"Central Kitsap School District - Woodlands Elementary","Located south of the Central Valley and Fairgrounds Rd intersection.",FALSE,
199,115,,,,"No description",,,47.6446728,-122.7192199,"Central Kitsap School District - Silverdale Elementary","From Highway 3 take the Newberry Hill Exit west.  Turn right onto Dickey Rd NW.",FALSE,
200,115,,,,"No description",,,47.592205,-122.69637,"Central Kitsap School District - Jackson Park Elementary","From Highway 3 take the Austin Way Dr exit. Follow Austin Dr to Jackson Park Elementary.",FALSE,
201,115,,,,"No description",,,47.633209,-122.615707,"Central Kitsap School District - Esquire Hills Elementary","From Highway 303 turn onto NE John Carlson Rd (opposite Fairgrounds Rd).",FALSE,
202,115,,,,"No description",,,47.6826374,-122.7249401,"Central Kitsap School District - Cougar Valley Elementary","From Highway 3 take the NW Anderson Hill exit west.  Turn right onto Olympic View Rd NW.",FALSE,
203,115,,,,"No description",,,47.6837582,-122.7016894,"Central Kitsap School District - Clear Creek Elementary","From Trigger Ave NW turn onto NE Sunde Rd.",FALSE,
204,115,,,,"No description",,,47.657783,-122.6678758,"Central Kitsap School District - Silver Ridge Elementary","From NW Waaga Way (Highway 303) take the Ridgetop Blvd Exit.  Turn north up Ridgetop, then right onto Hillsboro Dr NW.",FALSE,
205,115,,,,"No description",,,47.6131194,-122.6363793,"Central Kitsap School District - PineCrest Elementary","From Highway 303 turn west onto NE Riddell Rd.  Turn right onto Pine Rd.",FALSE,
206,115,,,,"No description",,,47.5985197,-122.8199742,"Central Kitsap School District - Green Mountain Elementary","From Seabeck Holly Rd NW turn onto NE Holly Rd.  Turn left onto Boundary Trail NW.",FALSE,
207,115,,,,"No description",,,47.6552961,-122.7034475,"Central Kitsap School District - Westside Alternative School","Located next to Central Kitsap Jr High School, off the roundabout on Anderson Hill Rd.",FALSE,
208,115,,,,"No description",,,47.651339,-122.699003,"Central Kitsap School District - Central Kitsap High School","From Silverdale Way NW turn onto NW Bucklin Hill Rd.  Located at the intersection of Anderson Hill Rd and NW Bucklin Hill Rd.",FALSE,
209,115,,,,"No description",,,47.6424949,-122.646231,"Central Kitsap School District - Cottonwood Elementary","From Central Valley Rd turn onto Foster Rd.",FALSE,
210,115,,,,"No description",,,47.6272284,-122.666591,"Central Kitsap School District - Eastside Alternative School","Located by Olympic High School, south of the Kitsap County Fairgrounds.",FALSE,
211,115,,,,"No description",,,47.647348,-122.696275,"Central Kitsap School District","Located at the corner of SIlverdale Way NW and NE Carlton St.",FALSE,
212,115,,,,"No description",,,47.6554248,-122.7023287,"Central Kitsap School District - Central Kitsap Junior High School","Located off Anderson Hill Rd at the roundabout.",FALSE,
213,115,,,,"No description",,,47.6369852,-122.6510575,"Central Kitsap School District - Fairview Junior High School","Located on Central Valley Rd, north of the intersection with Fairgrounds Rd.",FALSE,
214,115,,,,"No description",,,47.658877,-122.668541,"Central Kitsap School District - Ridgetop Junior High School","From NW Waaga Way (Highway 303) take the Ridgetop Blvd Exit.  Turn north up Ridgetop, then right onto Hillsboro Dr NW.",FALSE,
215,115,,,,"No description",,,47.6557636,-122.7034497,"Central Kitsap School District - New Frontiers Secondary School","Located next to Central Kitsap Jr High School, off the roundabout on Anderson Hill Rd.",FALSE,
216,115,,,,"No description",,,47.64185,-122.6073503,"Central Kitsap School District - Brownsville Elementary","Located along Illahee Rd NE south of the intersection with Brownsville Highway NE.",FALSE,
217,115,,,,"No description",,,47.6265727,-122.6648999,"Central Kitsap School District - Olympic High School","Located across from the Kitsap County Fairgrounds off Fairgrounds Rd.",FALSE,
218,116,,,,"No description",info@ywcakitsap.org,,47.5699912,-122.6273062,"YWCA of Kitsap County","Located at the corner of Pacific Ave and 9th St.",FALSE,
219,116,,,,"No description",bink@ywcakitsap.org,,47.6647391,-122.5107066,"YWCA - ALIVE Bainbridge Island and North Kitsap","Location is confidential.",FALSE,
220,116,,,,"No description",,,,,"YWCA - ALIVE - Alternatives to Living in a Violent Environment Shelter Program","Location of the shelter is confidential.",FALSE,
221,117,,,,"No description",sekiucenter@gmail.com,,48.263059,-124.3021302,"West End Seniors","Located in the Sekiu Community Center on Rice St off Front St.",FALSE,
222,118,,,,"No description",,,48.111515,-123.43351,"Port Angeles Senior Center","From S Lincoln St (Highway 101) turn east onto E 7th Ave.  Located on the corner of E 7th and S Peabody Streets.",FALSE,
223,119,,,,"No description",sequimsr@olypen.com,,48.0756378,-123.0885248,"Shipley Center","From downtown Sequim:  Travel East on Washington St. to the light at QFC/STAPLES shopping center.  Turn right at light onto Lee Chatfield, go 1 block, turn right on Hammond St. and left into our driveway at 921 E Hammond.  From Highway 101, entering Sequi",FALSE,
224,120,,,,"No description",,,48.0855396,-123.111388,"Sequim Aquatic Recreation Center","Located on N 5th Ave between W Hendrickson Rd and W Fir St.",FALSE,
225,121,,,,"No description",,,47.54531,-122.615429,"Retsil Veterans Home","From Highway 16 take the Bay St exit to downtown Port Orchard.  Follow Bay St east, and at the intersection with Bethel Ave turn left to continue following Bay St east.  Bay St will become Bay Dr, then turn left on Beach Dr E.",FALSE,
226,121,,,,"No description",Building9@dva.wa.gov,,47.54531,-122.615429,"Retsil Veterans Home - Building 9","From Tacoma: Take the Sedgewick exit from Highway 16, turn right on Sedgewick until you get to Jackson. Turn left on Jackson and continue until you get to the water. Turn left onto Beach Drive. About 200 yards on left will be the Veterans Home. Turn left ",FALSE,
227,122,,,,"No description",,,47.5675259,-122.6320139,"Salvation Army - Bremerton","Located on 6th St between Warren and Park Avenue.",FALSE,
228,123,,,,"No description",,,48.115815,-123.429471,"Salvation Army - Clallam","From Highway 101 (E Front St and E 1st St) tun south onto Peabody.  Located on the corner of Peabody and E 2nd St.",FALSE,
229,124,,,,"No description",,,47.6363122,-122.7217866,"Central Kitsap Fire & Rescue","From Highway 3 take the NW Newberry Hill Rd exit.  Travel west up the hill.  Headquarters located before the intersection with Dickey Rd NW.",FALSE,
230,125,,,,"No description",myrvang@comcast.net,,47.6584216,-122.6838464,"CHADD - Children and Adults with Attention Deficit Disorder - Kitsap","Meets in the Group Health Cooperative Classroom in Silverdale.  From Silverdale Way NW near the mall turn down the street next to McDonalds.  Group Health is located behind McDonalds.  Enter through Urgent Care doors, and follow the CHADD signs.",FALSE,
231,126,,,,"No description",,,48.1135779,-122.764561,"Better Living Center","Located on the corner of Franklin and Pierce Streets.",FALSE,
232,127,,,,"No description",kccha@kccha.org,,47.5669819,-122.6257395,"Housing Kitsap","Norm Dicks Government Center in downtown Bremerton, 6th Street and Pacific.",FALSE,
233,128,,,,"No description",,,47.5655971,-122.6294023,"Lutheran Community Services Northwest","Located on 4th Street near the intersection with Park Ave.",FALSE,
234,129,,,,"No description",makah@centurytel.net,,48.3475115,-124.6680377,"Makah Tribe","From Cape Flattery Rd, turn right onto Resort Dr.  Follow to end.",FALSE,
235,129,,,,"No description",,,48.3585375,-124.5846069,"Makah Tribe - Makah Recovery Services","Located on Bayview Rd (Highway 112) between Wispoo and Portage Streets.",FALSE,
236,129,,,,"No description",makah@centurytel.net,,48.3678112,-124.6266716,"Makah Tribe - Sophie Trettevick Indian Health Center","From Bayview Ave (Highway 112) turn  onto Kal-Chote St.  Turn right onto 2nd Ave, then left onto Fort St.",FALSE,
237,130,,,,"No description",,,47.5248539,-122.5788392,"Narcotics Anonymous","Call for meeting times and locations.",FALSE,
238,131,,,,"No description",,,47.5246598,-122.6296233,"Kitsap Mental Health Services - South Kitsap Outpatient Center","From SE Lund Ave turn north onto Bethel Rd SE.  Follow the fork to the right onto Mitchell Rd SE.  Located near the First Lutheran Church.",FALSE,
239,131,,,,"No description",,,47.5889659,-122.6344708,"Kitsap Mental Health Services - Child and Family Services Sheridan","From Wheaton Way turn west onto Sheridan Rd. Turn right after the Church of the Nazrene.",FALSE,
240,131,,,,"No description",,,47.6011099,-122.6273317,"Kitsap Mental Health Services - PACT II Office","Located in the Wheaton Way business park behind the old IHOP and KFC.",FALSE,
241,131,,,,"No description",info@kitsapmentalhealth.org,,47.611933,-122.6233945,"Kitsap Mental Health Services","From Wheaton Way (Hwy 303) take Fuson or Riddell Rd to Almira.  Located Behind Lowes and Fred Meyer.",FALSE,
242,131,,,,"No description",info@kitsapmentalhealth.org,,47.6117998,-122.6233971,"Kitsap Mental Health Services - Adult Inpatient Unit","From Wheaton Way (Hwy 303) take Fuson or Riddell Rd to Almira.  Located Behind Lowes and Fred Meyer.",FALSE,
243,131,,,,"No description",info@kitsapmentalhealth.org,,47.6117616,-122.6233979,"Kitsap Mental Health Services - Keller House","From Wheaton Way (Hwy 303) take Fuson or Riddell Rd to Almira.  Located Behind Lowes and Fred Meyer.",FALSE,
244,132,,,,"No description",info@arckj.org,,47.5925656,-122.6133901,"ARC of Kitsap and Jefferson Counties","From the Warren Ave Bridge take Sylvan Way east, turn right on Perry Ave.",FALSE,
245,133,,,,"No description",,,47.5649651,-122.6346149,"Bremerton Police Department","Located near the intersection of Burwell and Warren Ave.",FALSE,
246,134,,,,"No description",,,47.572035,-122.693202,"Bremerton School District - Kitsap Lake Elementary","From Kitsap Way take Wilmont St past the Forest Lawn Cemetery.  Turn right onto Harlow Dr.  Turn right onto Carr Blvd.",FALSE,
247,134,,,,"No description",,,47.5656295,-122.6614371,"Bremerton School District - Phoenix Academy","From National Ave S turn east onto Arsenal Way.  Turn left onto S Marion Ave.",FALSE,
248,134,,,,"No description",,,47.5697482,-122.6473207,"Bremerton School District - Naval Avenue Early Learning Center","From 11th St turn south onto Naval Ave.  From 6th St turn north onto Naval Ave.",FALSE,
249,134,,,,"No description",,,47.5640973,-122.6615305,"Bremerton School District - Renaissance High School","From National Ave S turn east onto Arsenal Way.  Turn left onto S Marion Ave.",FALSE,
250,134,,,,"No description",,,47.573272,-122.6395392,"Bremerton School District - Bremerton High School","Bremerton High is located on 13th St between Ohio and High Avenues.",FALSE,
251,134,,,,"No description",,,47.5815509,-122.6136449,"Bremerton School District - Mountain View Middle School","Located on the corner of Perry Ave and Holman St.",FALSE,
252,134,,,,"No description",,,47.5934818,-122.6275402,"Bremerton School District - View Ridge Elementary","From Wheaton Way turn east onto Sylvan Way.  Turn right onto Spruce Ave by the Post Office.",FALSE,
253,134,,,,"No description",,,47.5750249,-122.6656237,"Bremerton School District - Crownhill Elementary","From Kitsap Way turn onto Marine Dr.  Turn right onto Rocky Point Rd.",FALSE,
254,134,,,,"No description",,,47.5921323,-122.6354554,"Bremerton School District - Armin Jahr Elementary","From Wheaton Way turn onto Dibb St across from Flowers To Go.  Located at the end of Dibb St and at the end of Stewart Rd.",FALSE,
255,134,,,,"No description",,,47.5649866,-122.6618829,"Bremerton School District","From National Ave S turn east onto Arsenal Way.  Turn left onto S Marion Ave.",FALSE,
256,134,,,,"No description",,,47.5572289,-122.6677738,"Bremerton School District - West Hills STEM Academy","Located at the intersection of National Ave S and W Loxie Eagans Blvd.",FALSE,
257,135,,,,"No description",,,47.5547031,-122.6811369,"Kitsap Central Communications - 911","From the intersection of Auto Center Blvd and Werner Rd turn south onto Union Ave, travel to the top of the hill and take the first right.",FALSE,
258,136,,,,"No description",court@bainbridgewa.gov,,47.664235,-122.511322,"City of Bainbridge Island - Municipal Court","Take Highway 305 to NE Valley Rd, building located just past Hyla Rd.",FALSE,
259,136,,,,"No description",CityAdmin@ci.bainbridge-isl.wa.us,,47.6263099,-122.520497,"City of Bainbridge Island","Take Olympic Way to Winslow Way E, then turn onto Madison Ave.  Two blocks north of Eagle Harbor Waterfront Park.",FALSE,
260,137,,,,"No description",info@forkswashington.org,,47.9503801,-124.3784498,"City of Forks","Take Forks Ave to Division St, one block east of N Spartan Ave.",FALSE,
261,138,,,,"No description",cityhall@cityofportorchard.us,,47.5411792,-122.6387446,"City of Port Orchard","Located just off Bay St, take Robert Geiger Rd or Frederick St to Prospect.",FALSE,
262,139,,,,"No description",,,48.1162874,-122.7534821,"City of Port Townsend","Off Washington St, between Memorial Field Ball Park and the waterfront.",FALSE,
263,139,,,,"No description",ptlibrary@cityofpt.us,,48.1164711,-122.7629577,"City of Port Townsend - Port Townsend Public Library","Located near the intersection of Lawrence St and Filmore St.",FALSE,
264,140,,,,"No description",,,47.7356369,-122.645846,"City of Poulsbo","From Highway 3 exit at the Finn Hill Exit. From Finn Hill Rd NW follow throught the traffic light onto Lindvig Way NW. Go straight through the traffic light onto Front Street NE. At the 4-way stop sign turn left onto Jensen Way NE. The first street on the",FALSE,
265,140,,,,"No description",parksrec@cityofpoulsbo.com,,47.7403817,-122.6494502,"City of Poulsbo - Parks and Recreation","On Front St between NE Peterson and NE Sunset streets.",FALSE,
266,140,,,,"No description",,,47.7356369,-122.645846,"City of Poulsbo - Public Works","From Highway 3 exit at the Finn Hill Exit. From Finn Hill Rd NW follow throught the traffic light onto Lindvig Way NW. Go straight through the traffic light onto Front Street NE. At the 4-way stop sign turn left onto Jensen Way NE. The first street on the",FALSE,
267,141,,,,"No description",,,48.085361,-123.113511,"City of Sequim - Public Works","Located on N 5th Ave between Olympic Discovery Trail and W Fir St.",FALSE,
268,141,,,,"No description",,,48.0807912,-123.1037854,"City of Sequim","On W Cedar off N Sequim Rd.",FALSE,
269,142,,,,"No description",,,48.084018,-123.114555,"Compassionate Friends - North Olympic Peninsula Chapter","Located in St Lukes Episcopal Church on N 5th Ave in Sequim.",FALSE,
270,143,,,,"No description",theupside@comcast.net,,47.647028,-122.659666,"Down Syndrome Support Group of Kitsap and Surrounding Areas","Meets in the Central Kitsap Presbyterian Church on the Corner of Nels Nelson and NW Silver St.",FALSE,
271,144,,,,"No description",,,48.1118734,-122.7671483,"Jefferson County District Courthouse","From E Sims Way take Washington St to Jefferson St.",FALSE,
272,144,,,,"No description",,,48.1047974,-122.7903239,"Jefferson County Government - Public Works","Located near Jefferson Healthcare.",FALSE,
273,144,,,,"No description",,,48.111021,-122.8271402,"Jefferson County Government - Transfer Station","Located on Jacob Miller Rd, 3/4 mile off Highway 20 just outside Port Townsend.",FALSE,
274,144,,,,"No description",,,47.8212652,-122.8861927,"Jefferson County Government - Quilcene Solid Waste Dropbox","Located south of Quilcene.",FALSE,
275,145,,,,"No description",,,48.0325363,-122.7725515,"Jefferson County Library","Located by Ness Corner Rd (SR 116).",FALSE,
276,146,,,,"No description",info@dovehousejc.org,,48.1071095,-122.7925957,"Dove House Advocacy Services","From W Sims Way turn north onto Sheridan St.  Turn right onto 10th St.  Corner of 10th and Cleveland",FALSE,
277,147,,,,"No description",info@operationuplift.org,,48.1102689,-123.4114523,"Operation Uplift","Located near the intersection of E 1st and N Liberty Streets.",FALSE,
278,148,,,,"No description",,,47.575258,-122.6352127,"Olympic College","Located just south of the Warren Ave bridge.",FALSE,
279,148,,,,"No description",poulsbocampus@olympic.edu,,47.7516392,-122.6602632,"Olympic College - Poulsbo","North on Highway 305, up the hill from Wal-Mart and Home Depot.",FALSE,
280,149,,,,"No description",,,47.6131822,-122.6239979,"Kitsap Recovery Center","From Wheaton Way (Highway 303) turn north onto NE Fuson Rd next to Lowes Home Improvement Center.  Kitsap Recovery Center is location at the top of the hill before the road corners onto Almira Dr NE.",FALSE,
281,150,,,,"No description",,,48.1358369,-123.746064,"Crescent School District","Located at the intersection of Piedmont Rd (Highway 112), Joyce-Piedmont Rd, and Crescent Beach Rd.",FALSE,
282,151,,,,"No description",drc@kitsapdrc.org,,47.645057,-122.694898,"Dispute Resolution Center","In Old Town Silverdale on Washington between NW Lowell and NW Byron Streets.",FALSE,
283,152,,,,"No description",,,47.7989034,-122.4979752,"Kitsap Regional Library - Kingston","Located near the Kingston-Edmonds Ferry, and is surrounded by Highway 104, Iowa Ave NE, and NE 1st St.",FALSE,
284,152,,,,"No description",,,47.6463441,-122.6962878,"Kitsap Regional Library - Silverdale","From Silverdale Way NW, turn onto NW Carlton St by the Central Kitsap School District Building.",FALSE,
285,152,,,,"No description",,,47.7358163,-122.6397001,"Kitsap Regional Library - Poulsbo","From Highway 305 turn west onto NE Lincoln Rd.",FALSE,
286,152,,,,"No description",,,47.542443,-122.63576,"Kitsap Regional Library - Port Orchard","From Bay St turn north toward the waterfront on Sidney Ave.",FALSE,
287,152,,,,"No description",,,47.8727792,-122.5461055,"Kitsap Regional Library - Little Boston","From Hansville Rd NE turn west onto Little Boston Rd NE.",FALSE,
288,152,,,,"No description",dblibrary@krl.org,,47.5667587,-122.6284617,"Kitsap Regional Library - Downtown Bremerton","From 6th St in Bremerton turn south onto Pacific Ave.  Take the next right onto 5th Ave.  Located opposite the Kitsap Sun.",FALSE,
289,152,,,,"No description",bilibrary@krl.org,,47.6352645,-122.5205154,"Kitsap Regional Library - Bainbridge Island","From Highway 305 turn west onto High School Rd NE.  Take the roundabout south to the library.",FALSE,
290,152,,,,"No description",swlibrary@krl.org,,47.5951125,-122.624949,"Kitsap Regional Library - Sylvan Way","From Wheaton Way turn east onto Sylvan Way.  Library located on the right next to the Post Office, and across from WorkSource.",FALSE,
291,152,,,,"No description",,,47.5558919,-122.5446565,"Kitsap Regional Library - Manchester","From SE Mile Hill Rd turn onto Colchester Dr SE.  Located at the intersection of Colchester and Main St.",FALSE,
292,153,,,,"No description",,,47.8223137,-122.8757199,"Quilcene Lions Club","No physical location",FALSE,
293,154,,,,"No description",wlis@qlsd.wednet.edu,,47.823099,-122.8732819,"Quilcene School District","Located on US Highway 101 in Quilcene.",FALSE,
294,155,,,,"No description",,,47.948215,-124.381387,"Quillayute Valley School District #402 - Forks Elementary School","From S Forks Ave (Highway 101) turn east A St SE, then right onto S Elderberry.",FALSE,
295,155,,,,"No description",,,47.9458733,-124.383823,"Quillayute Valley School District #402 - Forks Alternative School","From S Forks Ave (Highway 101) turn east onto East E St.",FALSE,
296,155,,,,"No description",,,47.9477759,-124.3825504,"Quillayute Valley School District #402 - Forks Junior/Senior High School","From S Forks Ave (Highway 101) turn east onto East E St, then left onto Spartan Ave.",FALSE,
297,155,,,,"No description",,,47.9465766,-124.3839542,"Quillayute Valley School District 402","From S Forks Ave (Highway 101) turn east onto East E St, then left onto Spartan Ave.  Located near Forks Jr High.",FALSE,
298,155,,,,"No description",,,47.9511524,-124.3843047,"Quillayute Valley School District #402 - Forks Intermediate School","From S Forks Ave (Highway 101) turn east onto East E St, the left onto Spartan Ave.",FALSE,
299,156,,,,"No description",rperegrin@co.clallam.wa.us,,48.1155739,-123.4337165,"Clallam County Sheriff's Office - Emergency Management Division","Located in the basement of Clallam County Courthouse between S Lincoln and S Peabody St.",FALSE,
300,157,,,,"No description",,,48.0240674,-122.7650732,"Jefferson County Department of Emergency Management","From Chimacum Rd or Old Hadlock Rd, turn onto Elkins Rd at the Bates Jefferson Ball Fields.",FALSE,
301,158,,,,"No description",,,,,"St Vincent de Paul - Kitsap - Women's Shelter","Location is confidential.  Address will be given during Housing Solutions Center intake.",FALSE,
302,158,,,,"No description",,,47.5713595,-122.6533017,"St Vincent de Paul - Bremerton","From 11th St turn north onto Callow Ave.  St Vincent de Paul is located on the left side of the street.",FALSE,
303,158,,,,"No description",,,47.5434829,-122.6294331,"St Vincent de Paul - Port Orchard","Located on Bay St between the Comfort Inn and Bay Ford.",FALSE,
304,158,,,,"No description",,,47.7357493,-122.6277753,"St Vincent de Paul - Poulsbo","Located in St Olaf's Church on Caldart Ave near North Kitsap High School.",FALSE,
305,158,,,,"No description",,,47.5711819,-122.6532988,"St Vincent de Paul Thrift Store - Bremerton","From 11th St turn north onto Callow Ave.  St Vincent de Paul is located on the left side of the street.",FALSE,
306,159,,,,"No description",,,47.9506586,-123.3456072,"St Vincent de Paul - Port Angeles","No physical location.",FALSE,
307,159,,,,"No description",,,48.0217704,-123.1273844,"St Vincent de Paul - Sequim","No physical address.",FALSE,
308,160,,,,"No description",,,48.11497,-123.443186,"Olympic Medical Physicians - Primary Care Clinic - 8th & Cherry","Located at the corner of 8th and Cherry Streets.",FALSE,
309,160,,,,"No description",,,48.0883648,-123.1156208,"Olympic Medical Sleep Center","Located at the Squeim Medical Plaza off North 5th Avenue and West Hendrickson Road.  The Sleep Center is in Suite 106.",FALSE,
310,160,,,,"No description",,,48.089429,-123.1119067,"Olympic Medical Physicians - Specialty Clinic - Sequim","Located in the Olympic Medical Park on N 5th Ave, south of Old Olympic Highway in Suite 1500.",FALSE,
311,160,,,,"No description",,,48.114809,-123.415326,"Olympic Medical Physicians - Women's Clinic","Located on Caroline St across from Olympic Medical Center.",FALSE,
312,160,,,,"No description",,,48.089429,-123.1119067,"Olympic Medical Physicians - Walk-in Clinic - Sequim","Located in the Olympic Medical Park on N 5th Ave, south of Old Olympic Highway in Suite 1400.",FALSE,
313,160,,,,"No description",,,48.114735,-123.413496,"Olympic Medical Physicians - Surgery Clinic","Located on Caroline St across from Olympic Medical Center.",FALSE,
314,160,,,,"No description",,,48.1142725,-123.4160547,"Olympic Medical Physicians - Specialty Clinic - Port Angeles","Located on Georgiana St between Olympic Medical Center and E Front St (Highway 101).",FALSE,
315,160,,,,"No description",,,48.1124203,-123.4144574,"Olympic Medical Physical Therapy and Rehabilitation - Port Angeles","Located near the corner of East Front Street (Highway 101) and North Chambers Street.",FALSE,
316,160,,,,"No description",,,48.0897886,-123.1130828,"Olympic Medical Physicians - Primary Care Clinic - Sequim","Located in Suite 101 of the N 5th St at the Olympic Medical Center Sequim Campus.",FALSE,
317,160,,,,"No description",,,48.0883648,-123.1156208,"Olympic Medical Physicians - Orthopaedic Clinic - Sequim","Located off N 5th Ave next to Sherwood Assisted Living.",FALSE,
318,160,,,,"No description",,,48.0897886,-123.1130828,"Olympic Medical Physical Therapy and Rehabilitation - Sequim","Located in Suite 102 of Olympic Medical Center Sequim Campus off the N 5th St.",FALSE,
319,160,,,,"No description",,,48.1145841,-123.4145927,"Olympic Medical Physicians - Orthopaedic Clinic - Port Angeles","Located on Caroline St across from Olympic Medical Center.",FALSE,
320,160,,,,"No description",,,48.089429,-123.1119067,"Olympic Medical Services Building","Located in the Olympic Medical Park on N 5th Ave, south of Old Olympic Highway.",FALSE,
321,160,,,,"No description",,,48.0899562,-123.113084,"Olympic Medical Center - Cancer Center","Located in the Olympic Medical Park on N 5th Ave south of the Old Olympic Highway.",FALSE,
322,160,,,,"No description",,,48.114237,-123.4159673,"Olympic Medical Center - Home Health","Located near the corner of Georgiana St and N Washington St.",FALSE,
323,160,,,,"No description",webmaster@olympicmedical.org,,48.1152561,-123.4150459,"Olympic Medical Center","From East Front Street or East 1st Street turn north onto North Race Street or North Washington Streets.  FLoow to Caroline Street and Olympic Medical Center.",FALSE,
324,160,,,,"No description",,,48.110375,-123.431939,"Olympic Medical Physicians - Primary Care Clinic - 8th & Vine","Located at the corner of 8th and Vine Streets.",FALSE,
325,161,,,,"No description",,,47.5335162,-122.6371904,"Kitsap County Division of Aging and Long-Term Care","From Highway 16 take the Tremont Ave exit east.  Follow Tremont and turn left on Sidney Ave.  Located in the Givens Community Center on the left.",FALSE,
326,161,,,,"No description",,,47.6529349,-122.6924217,"Kitsap County Division of Aging and Long-Term Care - Caregiver Support Center","From Kitsap Mall Blvd turn right onto Silverdale Way NW.  Turn right into the old Poplars Hotel (behind Bank of America).",FALSE,
327,162,,,,"No description",acarver@pencol.edu,,47.950358,-124.3854369,"Peninsula College - Forks Extension",,FALSE,
328,162,,,,"No description",admissions@pencol.edu,,48.1003007,-123.4107632,"Peninsula College","From E Front St or Highway 101 turn south onto N Race St.  Turn left onto E Laurdisen Blvd and follow to the college campus.",FALSE,
329,163,,,,"No description",parks@co.kitsap.wa.us,,47.6320501,-122.663112,"Kitsap County Parks and Recreation","Located at the Kitsap County Fairgrounds.",FALSE,
330,163,,,,"No description",,,47.6517961,-122.6941955,"Kitsap County Parks and Recreation - Silverdale Community Center","From the Kitsap Mall travel south on Silverdale Way NW.  Turn right at the Community Center before the intersection with NW Bucklin Hill Rd.",FALSE,
331,163,,,,"No description",,,47.7984994,-122.4980321,"Kitsap County Parks and Recreation - Kingston Community Center","Located near the Kingston-Edmonds Ferry at the intersection of NE West Kingston Rd and Highway 104.",FALSE,
332,163,,,,"No description",,,47.6826734,-122.6632694,"Kitsap County Parks and Recreation - Island Lake Community Room","From Silverdale travel north on Silverdale Way NW.  Travel past Ridgetop Blvd NW and take the next right onto Bennington Dr NW.  Follow to NW Island Lake Rd.",FALSE,
333,163,,,,"No description",,,47.6334123,-122.6640916,"Kitsap County Parks and Recreation - Kitsap Fairgrounds & Events Center","Located at the Kitsap County Fairgrounds.  In Bremerton take Wheaton Way (Highway 303) to NW Fairground Rd.  Follow to the Fairgrounds.",FALSE,
334,163,,,,"No description",,,47.5014394,-122.5819941,"Kitsap County Parks and Recreation - Long Lake County Park","From SE Sedgwick Rd turn south onto Bodie Rd SE.  Park at intersection with Long Lake Rd SE.",FALSE,
335,164,,,,"No description",info@jeffersonmhs.org,,48.105899,-122.803778,"Jefferson Mental Health Services","884 West Park is in the Port Townsend Business Park, off Simms Way not far from Port Townsend city limits.",FALSE,
336,165,,,,"No description",maureen.woods@makah.com,,48.3679635,-124.6235483,"Neah Bay Tribal Senior Center","Located on 341 Bayview Ave on the beach side at driving towards the Tribal Center.",FALSE,
337,166,,,,"No description",info@kitsapchildrenstherapy.com,,47.7380977,-122.6426385,"Kitsap Children's Therapy","From Highway 305 turn west onto NE Lincoln Rd.  Go straight through the intersection onto NE Iverson St.  Turn right onto 7th Ave NE.",FALSE,
338,167,,,,"No description",,,46.9812451,-123.8205866,"Harborcrest Behavioral Health","Traveling west, Highway 12 into Aberdeen, turn right on Broadway, then right on 6th St. for 2.5 blocks. 
Traveling east, Wishkah Blvd take left on Broadway, right on 6th for 2.5 blocks.",FALSE,
339,168,,,,"No description",admin@hagh.com,,46.9792554,-123.8139192,"Housing Authority of Grays Harbor County","Located on the corner of E 1st St and N E St.",FALSE,
340,169,,,,"No description",qyouthresources@gmail.com,,47.632771,-122.651159,"Q Youth Resources","Located under the same roof as the Family of God Lutheran church on the corner of Central Valley Rd and Fairgrounds Rd. Not affiliated with the church.",FALSE,
341,170,,,,"No description",dem@co.kitsap.wa.us,,47.5547031,-122.6811369,"Kitsap County Department of Emergency Management","From the South: Take Hwy. 16 to Hwy. 3 North. Exit Hwy. 3 North at Loxie Eagans exit. Turn left. Go to Union Ave, turn left. Go up the hill and turn right on Linden, then turn right on Carver. Our building will be on the left. From the North: Take Hwy. 3 ",FALSE,
342,171,,,,"No description",information@cityofpa.us,,48.1143639,-123.4320721,"City of Port Angeles","Located in the City Hall between S Lincoln and S Peabody St.",FALSE,
343,171,,,,"No description",,,48.0803194,-123.2754019,"City of Port Angeles - Blue Mountain Transfer Station","From Port Angeles - Head east on Highway 101 for approximately 5.5 miles. Turn right onto Blue Mountain Road. Proceed about 1 mile to the station. Gate is on the right.
From Sequim - Head west on Highway 101 for approximately 6.5 miles. Turn left onto blu",FALSE,
344,172,,,,"No description",,,47.6977649,-122.89733,"Brinnon Community Center","Located on Highway 101 north of the Brinnon General Store.",FALSE,
345,173,,,,"No description",poulsbo@kacewa.org,,,,"Kitsap Adult Center for Education - Poulsbo","Located at Poulsbo First Lutheran Church at the intersection of NE Hostmark and 4th Ave NE.",FALSE,
346,173,,,,"No description",info@kacewa.org,,47.5667463,-122.628631,"Kitsap Adult Center for Education","Located downstairs in the Downtown Library on 5th St, between Pacific and Park Ave.  It is just across the street from the Kitsap Sun and behind the Admiral Theater.",FALSE,
347,173,,,,"No description",johnr@kacewa.org,,47.540804,-122.636762,"Kitsap Adult Center for Education - South Kitsap Family Service Center","Meets at the United Methodist Church in Port Orchard.",FALSE,
348,174,,,,"No description",,,48.084018,-123.114555,"St Luke's Episcopal Church","From W Fir St turn north onto 5th Ave.",FALSE,
349,175,,,,"No description",,,47.7341243,-122.6459295,"North Kitsap Senior Center","From Highway 305 turn west on NE Hostmark St and continue onto Front St.",FALSE,
350,176,,,,"No description",,,46.9757434,-123.8174897,"Aberdeen Police Department","Located on the corner of E Market and S I St.",FALSE,
351,177,,,,"No description",,,46.9535206,-123.7683046,"Cosmopolis Police Department","Located near the corner of 1st St (Highway 101) and D St.",FALSE,
352,178,,,,"No description",police@cityofelma.com,,47.0050292,-123.4038045,"Elma Police Department","Located on the corner of N 3rd and W Young streets.",FALSE,
353,179,,,,"No description",,,46.981869,-123.6021151,"Grays Harbor Sheriff's Department","Located at the courthouse on the corner of Broadway and N Main St.",FALSE,
354,180,,,,"No description",jmyers@cityofhoquiam.com,,46.976512,-123.880285,"Hoquiam Police Department","Located near the corner of 10th and Levee St, just off Simpson Ave.",FALSE,
355,181,,,,"No description",george.c@cityofmccleary.com,,47.055385,-123.26394,"McCleary Police Department","Located on the corner of S 3rd St and W Simpson Ave at the city hall.",FALSE,
356,182,,,,"No description",,,46.9817738,-123.600456,"Montesano Police Department","Located on the corner of N Main St and Broadway Ave.",FALSE,
357,183,,,,"No description",,,47.346921,-124.2927746,"Taholah Police Department","From State Route 109 turn west onto Cuitan St.  Located at the intersection with 3rd Ave.",FALSE,
358,184,,,,"No description",records@ci.westport.wa.us,,46.8931933,-124.1040188,"Westport Police Department","Located on the corner of E Washington and N Montesano St.",FALSE,
359,185,,,,"No description",info@habitatclallam.org,,48.114633,-123.420703,"Habitat for Humanity of Clallam County","Located on East Front Street between Eunice and Francis Streets.",FALSE,
360,185,,,,"No description",,,48.0798598,-123.1092842,"Habitat for Humanity of Clallam County - Sequim","Located on W Washington St between 3rd and 4th Ave.",FALSE,
361,186,,,,"No description",director@habitatejc.org,,48.1029712,-122.7992916,"Habitat for Humanity of East Jefferson County","Located on W Sims Way at the intersection with Thomas St.",FALSE,
362,187,,,,"No description",familyservices@kitsaphabitat.org,,47.5973488,-122.629412,"Habitat for Humanity of Kitsap County","On the corner of Wheaton and Sylvan Ways.",FALSE,
363,187,,,,"No description",storemanager@kitsaphabitat.org,,47.5962308,-122.6294422,"Habitat for Humanity of Kitsap County - The Habitat Store","Located near the corner of Wheaton and Sylvan Ways.",FALSE,
364,188,,,,"No description",,,48.1072037,-122.7903246,"Jefferson Healthcare - Surgery and Endoscopy Center","Located at the intersection of 10th and Sheridan St near Jefferson Healthcare.",FALSE,
365,188,,,,"No description",,,47.8218763,-122.8758901,"Jefferson Healthcare - South County Clinic","Located on Highway 101 in Quilcene.",FALSE,
366,188,,,,"No description",,,48.106975,-122.789823,"Jefferson Healthcare - Internal Medicine Clinic","Located 1 block north of Jefferson Healthcare off 10th Street.",FALSE,
367,188,,,,"No description",,,48.1049559,-122.7881307,"Jefferson Healthcare - 7th Street Clinic","Located on the corner of Sheridan Avenue and 7th Street.",FALSE,
368,188,,,,"No description",,,47.920713,-122.699304,"Jefferson Healthcare - Port Ludlow Clinic","Located on Oak Bay Rd across from the Port Ludlow ViIlage.",FALSE,
369,188,,,,"No description",,,48.1028348,-122.8055055,"Jefferson Healthcare - Home Health and Hospice","Located next to the roundabout on W Sims way off Howard St.",FALSE,
370,188,,,,"No description",,,48.1072037,-122.7903246,"Jefferson Healthcare - Madrona Family Medicine Clinic","Located at the intersection of 10th and Sheridan St near Jefferson Healthcare.",FALSE,
371,188,,,,"No description",,,48.1072037,-122.7903246,"Jefferson Healthcare - Family Medicine","Located at the intersection of 10th and Sheridan St near Jefferson Healthcare.",FALSE,
372,188,,,,"No description",,,48.106975,-122.789823,"Jefferson Healthcare - Walk-in Clinic","Located near Jefferson Healthcare on the corner of 10th and Sheridan Streets.",FALSE,
373,188,,,,"No description",,,48.1053429,-122.7902936,"Jefferson Healthcare","Take W Sims way and turn north onto Sheridan St.",FALSE,
374,188,,,,"No description",,,48.1067813,-122.7906383,"Jefferson Healthcare - Medical and Pediatric Group","Located on Sheridan a block north of Jefferson Healthcare Hospital.",FALSE,
375,189,,,,"No description",proa@qwestoffice.net,,47.5655971,-122.6294023,"Puget Rental Owners Association","Located on the corner of 4th and Park Ave.",FALSE,
376,190,,,,"No description",shelter@hsjcwa.org,,48.1028017,-122.8279172,"Humane Society of Jefferson County","Located by the county landfill.  From Highway 20 turn west onto S. Jacob Miller Rd. past fire station turn left to transfer station and left onto Critter Lane.",FALSE,
377,191,,,,"No description",,,48.1007391,-123.4328414,"Olympic National Park","Park can be reached from one of many exits of Highway 101.",FALSE,
378,192,,,,"No description",,,47.5671523,-122.6299712,"City of Bremerton - Municipal Court","Located on the corner of 6th St and Park Ave.",FALSE,
379,192,,,,"No description",,,47.5640818,-122.6722842,"City of Bremerton - Utility Billing","Call for more information.",FALSE,
380,192,,,,"No description",parks@ci.bremerton.us,,47.5822754,-122.6296377,"City of Bremerton - Sheridan Park Community Center","On Lebo just west of the Warren Ave bridge, near Lions Field.",FALSE,
381,192,,,,"No description",,,47.5669819,-122.6257395,"City of Bremerton","Located in the Norm Dicks Building on the corner of 6th St and Pacific Ave.",FALSE,
382,193,,,,"No description",,,47.95038,-124.3784406,"Clallam County Government - District II Court",,FALSE,
383,193,,,,"No description",parks@co.clallam.wa.us,,48.1155739,-123.4337165,"Clallam County Government - Parks Department","Parks are located throughout county.  Call for more information.",FALSE,
384,193,,,,"No description",,,48.1155739,-123.4337165,"Clallam County Courthouse","Located in the City Hall between S Lincoln and S Peabody.",FALSE,
385,194,,,,"No description",kyle@ccfymca.org,,48.1120516,-123.4232724,"Olympic Peninsula YMCA","Located between Jesse Webster Park (the tree park) and Erickson Field west of the Dream Playground.",FALSE,
386,194,,,,"No description",,,48.1154349,-122.7722662,"Olympic Peninsula YMCA - Port Townsend","Located at the Mountain View Commons on the corner of Blaine and Walker Streets.",FALSE,
387,195,,,,"No description",office@foglc.org,,47.632771,-122.651159,"Family of God Lutheran Church","Located at the intersection of Central Valley and Fairgrounds roads.",FALSE,
388,196,,,,"No description",info@forkswashington.org,,47.9503801,-124.3784498,"Forks Police Department","Located at the corner of E Division St and Maple Ave.",FALSE,
389,197,,,,"No description",sheriff@co.kitsap.wa.us,,47.5403732,-122.6362492,"Kitsap County Sheriff's Office","From Bay St turn onto Kitsap St by the Port Orchard City Hall.  Turn right onto Cline Ave.  Parking for the courthouse will be on the left after Division St.",FALSE,
390,197,,,,"No description",sheriff@co.kitsap.wa.us,,47.6510395,-122.6954875,"Kitsap County Sheriff's Office - Silverdale",,FALSE,
391,198,,,,"No description",police@cityofpa.us,,48.1143639,-123.4320721,"Port Angeles Police Department","Located at the corner of S Peabody and East 4th and 5th Streets.",FALSE,
392,199,,,,"No description",,,48.11496,-122.772048,"Port Townsend Police Department","Located at the corner of Blaine and Walker Streets, across from the golf course.",FALSE,
393,200,,,,"No description",police@sequimwa.gov,,48.079608,-123.1161583,"Sequim Police Department","Located in the shopping center near JCPenny and across W Washington St from Safeway.",FALSE,
394,201,,,,"No description",pensvc3@telebyte.com,,47.558563,-122.6975351,"Peninsula Services","Take Werner Rd one mile West past Auto Center Way. Located in the building just before you get to the main UPS office.",FALSE,
395,202,,,,"No description",pafoodbank@olypen.com,,48.118791,-123.442603,"Port Angeles Food Bank","From Highway 101 (Front St or 1st St) turn south onto S Valley St.",FALSE,
396,203,,,,"No description",info@portangelesschools.org,,48.1273401,-123.473891,"Port Angeles School District - Hamilton Elementary School","Located at the intersection of South M St and W 7th St.",FALSE,
397,203,,,,"No description",info@portangelesschools.org,,48.118988,-123.4556946,"Port Angeles School District - North Olympic Skills Center","From W Front St (Highway 101) follow onto Marine Dr and turn left onto Tumwater Rd.  Follow around and turn left on South B St.  Follow B St to W 9th Ave.  Located across from Lincoln High School.",FALSE,
398,203,,,,"No description",info@portangelesschools.org,,48.1085896,-123.4400294,"Port Angeles School District - Jefferson Elementary School","Located along S Lincoln St (Highway 101) at the intersection with E 12th St.",FALSE,
399,203,,,,"No description",info@portangelesschools.org,,48.102518,-123.423213,"Port Angeles School District - Franklin Elementary School","From South Race St turn east onto E Lauridsen Blvd.  Located at corner of S Washington St and E Lauridsen Blvd.",FALSE,
400,203,,,,"No description",info@portangelesschools.org,,48.113174,-123.538915,"Port Angeles School District - Dry Creek Elementary School","From Olympic Highway (Highway 101) Turn onto Laird Rd (near the intersection with Highway 112).  Turn left onto Rife Rd.",FALSE,
401,203,,,,"No description",,,48.116088,-123.465551,"Port Angeles School District - Stevens Middle School","From W Lauridsen Blvd turn north onto South E St, and follow to Stevens Middle School.",FALSE,
402,203,,,,"No description",info@portangelesschools.org,,48.119051,-123.4569612,"Port Angeles School District - Lincoln High School","From W Front St (Highway 101) follow onto Marine Dr and turn left onto Tumwater Rd.  Follow around and turn left on South B St.  Follow B St to W 9th Ave.",FALSE,
403,203,,,,"No description",PAHSinfo@portangelesschools.org,,48.1007549,-123.4383328,"Port Angeles School District - Port Angeles High School","From S Lincoln St (Highway 101) turn left onto E Lauridsen Blvd.  Next turn right onto S Peabody St, follow to end and turn right onto E Park Ave.",FALSE,
404,203,,,,"No description",info@portangelesschools.org,,48.114992,-123.433309,"Port Angeles School District","From S Lincoln or S Peabody Streets turn onto 4th St.  Located across from the Clallam County Courthouse.",FALSE,
405,203,,,,"No description",info@portangelesschools.org,,48.1022745,-123.389487,"Port Angeles School District - Roosevelt Elementary School","From E 1st St (Highway 101) turn south onto Monroe Rd by Mt Angeles Memorial Park and Cemetary.",FALSE,
406,204,,,,"No description",,,48.11496,-122.772048,"Port Townsend Food Bank","Food Bank at entrance of Mountain View Commons (formerly Mountain View Elementary School) on Blaine St.",FALSE,
407,205,,,,"No description",,,48.265058,-124.322019,"Hope Food Bank","Located at the Clallam Bay Assembly of God",FALSE,
408,206,,,,"No description",,,47.807626,-122.553752,"North Kitsap School District - David Wolfe Elementary School","From Poulsbo tranve north on Bond Rd NE (Highway 104).  Located at intersection of Highway 104 and Highland Rd NE.",FALSE,
409,206,,,,"No description",,,47.7044806,-122.6539227,"North Kitsap School District - Hilder Pearson Elementary School","Located by the intersection of Central Valley Rd and NW Luoto Rd (Highway 308).",FALSE,
410,206,,,,"No description",,,47.763622,-122.673086,"North Kitsap School District - Vinland Elementary School","From Highway 3 turn north on NW Finn Hill Rd.  NW Finn Hill Rd turn onto Rhododendron Ln NW.",FALSE,
411,206,,,,"No description",,,47.7356089,-122.556279,"North Kitsap School District - Suquamish Elementary School","From Suquamish Way NE turn north onto Division Ave NE.  TUrn right onto NE Geneva St, then left onto Park Blvd NE.",FALSE,
412,206,,,,"No description",,,47.7305782,-122.6173878,"North Kitsap School District - Poulsbo Elementary School","From Highway 305 turn east onto NE Hostmark Ave.  Follow to end and tun right onto Noll Rd NE.",FALSE,
413,206,,,,"No description",,,47.7329322,-122.622247,"North Kitsap School District - Poulsbo Middle School","Frolm Highway 305 turn east onto NE Hostmark Ave.  Located on the right-hand side after North Kitsap High School.",FALSE,
414,206,,,,"No description",,,47.7980843,-122.5183575,"North Kitsap School District - Kingston High School","From Miller Bay Rd turn onto NE West Kingston Rd.  Turn left onto Siyaya Ave NE.",FALSE,
415,206,,,,"No description",,,47.7288172,-122.6272332,"North Kitsap School District - Administrative Office","From Highway 305 turn east onto NE Hostmark St.  Turn right onto Caldart Ave.",FALSE,
416,206,,,,"No description",,,47.73541,-122.625185,"North Kitsap School District - North Kitsap High School","From Highway 305 turn east onto NE Hostmark St.  Located along the corners of Hostmark St and Caldart Ave.",FALSE,
417,206,,,,"No description",,,47.7960252,-122.5256469,"North Kitsap School District - Kingston Middle School","From Miller Bay Rd turn onto NE West Kingston Rd.",FALSE,
418,206,,,,"No description",,,47.80261,-122.5166506,"North Kitsap School District - Richard Gordon Elementary School","From Highway 104 turn south onto Barbar Cutoff Rd NE.  From Kingston Ferry Terminal tuen west onto NE West Kingston Rd, then right onto Barber Cutoff Rd NE.",FALSE,
419,207,,,,"No description",,,48.1165704,-122.7685868,"Port Townsend School District","From E Sims Way take Washington St.  Turn left onto Benton St.  Located near the Port Townsend High School.",FALSE,
420,207,,,,"No description",,,48.117607,-122.768006,"Port Townsend School District - Port Townsend High School","Located on the corner of Van Ness, Benton, and Blaine Streets.",FALSE,
421,207,,,,"No description",dlashinsky@ptsd50.org,,48.12846,-122.7778291,"Port Townsend School District - Blue Heron Middle School","Located on San Juan Ave between Center and Lopez Ave.",FALSE,
422,207,,,,"No description",msepler@ptsd50.org,,48.1113664,-122.7915336,"Port Townsend School District - Grant Street Elementary","Located off Discovery Rd on Grant St.",FALSE,
423,208,,,,"No description",,,47.821671,-122.8790532,"Quilcene Community Center","Located in Quilcene at the corner of Olympic Highway (Highway 101) and Bowen St.",FALSE,
424,209,,,,"No description",,,48.082627,-123.103475,"Sequim Food Bank","From N Sequim Ave turn west onto W Alder St.",FALSE,
425,210,,,,"No description",gneal@sequim.k12.wa.us,,48.0840461,-123.1026114,"Sequim School District","Located at the old school building at the corner of Fir St and Sequim Ave.",FALSE,
426,210,,,,"No description",,,48.0833136,-123.10776,"Sequim School District - Olympic Peninsula Academy","Located across the street from Haller Elementary on FIr St in the block of the old Sequim Community School.",FALSE,
427,210,,,,"No description",,,48.0837803,-123.1032888,"Sequim School District - Sequim High School","Located on N Sequim Ave.",FALSE,
428,210,,,,"No description",,,48.0868677,-123.112106,"Sequim School District - Sequim Middle School","Located on W Hendrickson Rd.",FALSE,
429,210,,,,"No description",,,48.084865,-123.105447,"Sequim School District - Helen Haller Elementary School","Located on W Fir St.",FALSE,
430,210,,,,"No description",dhudson@sequim.k12.wa.us,,48.0816548,-123.1759144,"Sequim School District - Greywolf Elementary School","Located just off the north side of Highway 101, across from Wal-Mart, on Carlsborg Rd.",FALSE,
431,211,,,,"No description",,,47.5116322,-122.7297199,"South Kitsap School District - Sunnyslope Elementary School","From Highway 3 turn onto Sunnyslope Rd.",FALSE,
432,211,,,,"No description",millera@skitsap.wednet.edu,,47.5231933,-122.6254695,"South Kitsap School District","From Highway 16 take the Tremont St exit east.  Follow Tremont St and turn left onto Bethel Ave.  Take Mitchell Rd SE, then turn right onto Lincoln Ave SE.  TUrn left on Hoover Ave and follow to the district building.",FALSE,
433,211,,,,"No description",,,47.536273,-122.6233751,"South Kitsap School District - Explorer Academy","From Highway 16 take the SE Mullenix Rd exit.  Turn west on SE Mullenix Rd.  Turn left at Bethel Burley Rd SE.  Turn right onto Wolf Ln.",FALSE,
434,211,,,,"No description",leacy@skitsap.wednet.edu,,47.529488,-122.600293,"South Kitsap School District - Madrona Heights Preschool","From Highway 16 take the Tremont St exit east.  Follow Tremont St and turn left onto Bethel Ave.  Take Mitchell Rd SE, then turn right onto Lincoln Ave SE.  TUrn left on Hoover Ave and follow to the district building.",FALSE,
435,211,,,,"No description",,,47.529488,-122.600293,"South Kitsap School District - Discovery Alternative School","From SE Sedgwick Rd turn north onto Jackson Ave.  Turn right on Se Mile Hill Dr, then right onto Fircrest Dr SE.",FALSE,
436,211,,,,"No description",,,47.5379634,-122.6241189,"South Kitsap School District - South Kitsap High School","From Bay St turn south onto Mitchell Ave.",FALSE,
437,211,,,,"No description",,,47.527775,-122.603626,"South Kitsap School District - Marcus Whitman Junior High School","From Highway 16 take SE Mile Hill Dr east.  Turn right onto Madrona Dr SE.",FALSE,
438,211,,,,"No description",,,47.506049,-122.532482,"South Kitsap School District - John Sedgwick Junior High School","From Highway 16 take SE Sedgwick Rd east.",FALSE,
439,211,,,,"No description",,,47.5160199,-122.6540413,"South Kitsap School District - Cedar Heights Junior High School","From Highway 16 take the Tremont Exit east.  Follow Tremont and turn right onto Pottery Ave.",FALSE,
440,211,,,,"No description",,,47.50577,-122.654188,"South Kitsap School District - Sidney Glen Elementary School","From Highway 16 turn west onto SW Sedgwick Rd.  Turn right onto Sidney Rd SW.  Located across from Fernwood Park.",FALSE,
441,211,,,,"No description",,,47.527369,-122.600029,"South Kitsap School District - Orchard Heights Elementary School","From SE Sedgwick Rd turn north onto Jackson Ave.  Turn right on Se Mile Hill Dr, then right onto Fircrest Dr SE.",FALSE,
442,211,,,,"No description",,,47.4325209,-122.5729488,"South Kitsap School District - Olalla Elementary School","From Highway 16 take SE Burley Olalla Rd east.  Located near the intersection with Olalla Valley Rd SE.",FALSE,
443,211,,,,"No description",,,47.4676526,-122.6034189,"South Kitsap School District - Mullenix Ridge Elementary School","From Highway 16 take SE Mullenix Rd east.  Located near Journey Ln.",FALSE,
444,211,,,,"No description",,,47.5519867,-122.5566815,"South Kitsap School District - Manchester Elementary School","From SE Mile Hill Dr take California Ave N.  Located near E Chester Rd.",FALSE,
445,211,,,,"No description",,,47.4987089,-122.6194104,"South Kitsap School District - Hidden Creek Elementary School","From Highway 16 take SE Sedgwick Rd east.  Turn right onto Converse Ave SE.",FALSE,
446,211,,,,"No description",,,47.438708,-122.647663,"South Kitsap School District - Burley Glenwood Elementary School","From Highway 16 and turn west onto SE Burley Olalla Rd.  Turn right onto Bethel-Burley Rd SE, then left onto SW Lakebay Blvd.",FALSE,
447,211,,,,"No description",,,47.5239244,-122.6272877,"South Kitsap School District - East Port Orchard Elementary School","From Highway 16 take the Tremont St exit east.  Follow Tremont St and turn left onto Bethel Ave.  Take Mitchell Rd SE, then turn right onto Lincoln Ave SE.  TUrn left on Hoover Ave and follow to the district building.",FALSE,
448,211,,,,"No description",,,47.518286,-122.544595,"South Kitsap School District - South Colby Elementary School","From SE Sedgwick Rd turn north onto Banner Rd SE.",FALSE,
449,212,,,,"No description",sheriff@co.clallam.wa.us,,48.1155739,-123.4337165,"Clallam County Sheriff's Office","Located in the Clallam County Courthouse at the corner of S Lincoln and E 4th streets.",FALSE,
450,212,,,,"No description",sheriff@co.clallam.wa.us,,48.1155739,-123.4337165,"Clallam County Sheriff's Office - Jail","Located in the Clallam County Courthouse at the corner of S Lincoln and E 4th streets.",FALSE,
451,213,,,,"No description",info@cchumane.com,,48.1041257,-123.4923665,"Olympic Peninsula Humane Society","Located on Highway 101 near the All Animal Veterinary Hospital across the highway from Port Angeles Hardwood.",FALSE,
452,214,,,,"No description",customerservice@kitsap-humane.org,,47.6456394,-122.7196301,"Kitsap County Humane Society","From Highway 3 turn west onto NW Newberry Hill Rd. Turn right onto Dickey Rd NW.",FALSE,
453,215,,,,"No description",,,47.7356369,-122.645846,"Poulsbo Police Department","Located on the corner of Moe and 3rd St the first floor of the city hall",FALSE,
454,216,,,,"No description",,,47.6352645,-122.5205154,"Visually Impaired Persons Support Group","Meets at the Bainbridge Island Main Library, near the intersection of Madison Ave N and High School Rd.",FALSE,
455,217,,,,"No description",admin@mychoices.org,,48.1071343,-123.4253617,"My Choices - Pregnancy Medical Resources - Port Angeles","Located at the corner of 8th and Race Streets.",FALSE,
456,217,,,,"No description",admin@mychoices.org,,48.0862181,-123.1011926,"My Choices - Pregnancy Medical Resources - Sequim","Located next to the library near the intersection of N Sequim Ave and W Hendrickson Rd.",FALSE,
457,218,,,,"No description",,,47.569645,-122.6306782,"Bremerton Fire Department","Located on Park Ave between and 8th and 10th Streets.",FALSE,
458,219,,,,"No description",info@housingresourcesbi.org,,47.6280692,-122.519412,"Housing Resources Board","From Olympic Way SE take the Winslow Way exit west, take a right on Madison Ave, then a right on Madrona Way NE.",FALSE,
459,220,,,,"No description",,,47.6064348,-122.6371839,"Planned Parenthood - Bremerton Health Center","From Wheaton Way turn west onto Riddell Rd.  Located on the left after Parkhurst Dr NE.",FALSE,
460,221,,,,"No description",info@jeffersoncountypublichealth.org,,47.8218763,-122.8758901,"Jefferson County Public Health Department - Quilcene Clinic","Located at the South County Medical Clinic, south of Quilcene.",FALSE,
461,221,,,,"No description",info@jeffersoncountypublichealth.org,,48.104782,-122.7903234,"Jefferson County Public Health Department","Take W Sims Way and turn north onto Sheridan St.",FALSE,
462,221,,,,"No description",info@jeffersoncountypublichealth.org,,48.0135457,-122.7768348,"Jefferson County Public Health Department - Chimacum Clinic","Located at the Tri-Area Community Center.",FALSE,
463,222,,,,"No description",churst@co.clallam.wa.us,,48.117249,-123.434231,"Clallam County Department of Health & Human Service - Public Health","Located in the Professional Services Building on 3rd St.",FALSE,
464,222,,,,"No description",EnviroHealth@co.clallam.wa.us,,48.1155739,-123.4337165,"Clallam County Department of Health & Human Service","Located in the County Building between S Lincoln and S Peabody St.",FALSE,
465,222,,,,"No description",,,47.9478246,-124.3868928,"Clallam County Department of Health & Human Service - Forks","From S Forks Way (Highway 101) turn west onto C St.",FALSE,
466,223,,,,"No description",,,47.5669819,-122.6257395,"Kitsap County Cooperative Extension Office","Located on the 5th floor in the Norm Dicks Building on 6th St.",FALSE,
467,224,,,,"No description",,,47.5945574,-122.6916629,"Naval Hospital Bremerton","Take Austin Dr exit from Highway 3.  Turn right on Higbee Rd.  Military ID required to pass gate to hospital.",FALSE,
468,224,,,,"No description",,,47.6948358,-122.7051246,"Naval Hospital Bremerton - Health Clinic Bangor","From Trigger Ave turn onto Scorpion Ave.  From Scorpion Ave turn onto Barb Ave.",FALSE,
469,225,,,,"No description",,,,,"Kitsap County Al-Anon","Call for meeting times and locations.",FALSE,
470,226,,,,"No description",,,48.0664695,-122.8166559," Alcoholics Anonymous District 56","Call for information about meeting locations.",FALSE,
471,227,,,,"No description",webmaster@nopaa.com,,47.9506586,-123.3456072,"Alcoholics Anonymous District 22","Call for meeting times and locations.",FALSE,
472,228,,,,"No description",info@jamestowntribe.org,,48.089819,-123.113083,"Jamestown S'Klallam Tribe - Jamestown Family Health Clinic","Located on N 5th Ave between Old Olympic Highway and E Hendrickson Rd behind the Olympic Medical Center campus.",FALSE,
473,228,,,,"No description",info@jamestowntribe.org,,48.0254542,-122.9962656,"Jamestown S'Klallam Tribe","On Highway 101 at Blyn turn north onto Blyn Crossing and turn right on Old Blyn Highway.  Follow to Tribal Center.",FALSE,
474,229,,,,"No description",,,48.0828831,-122.815801,"East Jefferson Fire Rescue - Administration Office","Follow Highway 20 and turn east onto Seton Rd.",FALSE,
475,229,,,,"No description",,,48.011521,-122.7706663,"East Jefferson Fire Rescue - Station 1-1","Located center of Rhody Dr and Highway 19.",FALSE,
476,229,,,,"No description",,,48.1028017,-122.8279172,"East Jefferson Fire Rescue - Station 1-5","Located by the county landfill.  From Highway 20 turn west onto S. Jacob Miller Rd. past fire station turn left to transfer station and left onto Critter Lane.",FALSE,
477,229,,,,"No description",,,48.11619,-122.764323,"East Jefferson Fire Rescue - Station 1-6","Located on the corner of Harrison and Lawrence Streets.",FALSE,
478,230,,,,"No description",,,47.6930092,-122.7246022,"Boys & Girls Club Admiral Boorda Center Unit","On Naval Base Bangor follow Trigger Ave and turn west onto Thresher Ave.  Next turn right onto Greenfish Dr.",FALSE,
479,230,,,,"No description",,,47.5890683,-122.695801,"Boys and Girls Club - Navy Youth Programs","From Highway 3 turn east onto Austin Dr.  Turn right onto Wencker Way.",FALSE,
480,231,,,,"No description",,,47.5817776,-122.6265138,"Peninsula Community Health Services - Wheaton Way Clinic","From Warren Ave cross the Warren Ave bridge and turn right onto Callahan Dr, then right onto Wheaton Way.  Located on the ground floor of the Doctors Clinic building near Harrison Hospital.",FALSE,
481,231,,,,"No description",,,47.5677372,-122.6291876,"Peninsula Community Health Services - Bremerton","Located on 6th Street between Park and Pacific Avenues.",FALSE,
482,231,,,,"No description",,,47.5220973,-122.6539718,"Peninsula Community Health Services - Port Orchard","Take the Tremont Exit from Highway 16, head east 1/8th mile.  Take a right on South Kitsap Blvd.",FALSE,
483,231,,,,"No description",,,47.5660668,-122.632487,"Peninsula Community Health Services - Administration","Located on the corner of 4th and Warren.",FALSE,
484,231,,,,"No description",,,47.744072,-122.640843,"Peninsula Community Health Services - Poulsbo","In Poulsbo near Highway 305.",FALSE,
485,232,,,,"No description",healfam@olypen.com,,48.1111713,-123.4123748,"Healthy Families","Located at the corner of E Front St and S Jones St.",FALSE,
486,233,,,,"No description",custserv@jeffersontransit.com,,48.1030223,-122.7951555,"Jefferson Transit","Located on W Sims Way at the corner of Hancock St.",FALSE,
487,234,,,,"No description",,,47.585464,-122.6289211,"St. Paul's Episcopal Church","From Warren Ave turn right onto Callahan Dr.  Located in the large brown church around the corner.",FALSE,
488,235,,,,"No description",,,48.109023,-123.404867,"USDA Rural Development","Located on E Front St between Penn and Alder Streets near Washington's Best.",FALSE,
489,236,,,,"No description",,,48.112464,-123.4219968,"Veterans Service Center","From Highway 101 (E Front St or E 1st St) turn south onto S Francis St.  Located near the corner of S Francis and E 2nd Streets.",FALSE,
490,237,,,,"No description",,,47.6620296,-122.6868286,"Boy Scouts of America - Orca District","From Highways 3 and 303 take the Kitsap Mall exit.  Turn left onto NW Randall Way.  Turn left at Macy's Furniture Gallery onto Myhre Pl NW.  Turn right into Seattle Lighting Plaza.  Located near Amish Touch.",FALSE,
491,238,,,,"No description",,,48.123685,-122.770864,"Boy Scouts of America - Mt Olympus District","Locations vary, visit website for details.",FALSE,
492,239,,,,"No description",,,47.5335162,-122.6371904,"Givens Senior Center","From Tremont St turn north onto Sidney Ave.  From Bay St turn south onto Sidney Ave.",FALSE,
493,240,,,,"No description",,,47.5583205,-122.6779757,"Department of Social and Health Services - Kitsap","The office is located kitty-corner from the Washington State Patrol",FALSE,
494,241,,,,"No description",,,48.1203332,-123.4367054,"Department of Social and Health Services - Port Angeles","Located at W 1st St and Oak St.",FALSE,
495,241,,,,"No description",,,47.9466694,-124.391688,"Department of Social and Health Services - Forks","Located on the corner of Bogachiel Way and N 5th Ave, across from Forks Community Hospital.",FALSE,
496,242,,,,"No description",,,48.1067813,-122.7906383,"Department of Social and Health Services - Administration","The office is located across the street from the Port Townsend Hospital.",FALSE,
497,243,,,,"No description",,,47.5665071,-122.6331986,"Catholic Community Services - Housing and Essential Needs","Location is in the basement of the white church on the corner of 5th and Warren.",FALSE,
498,243,,,,"No description",,,,,"Catholic Community Services - Kitsap - Benedict House","Location is confidential, address will be provided during intake.",FALSE,
499,243,,,,"No description",,,47.5663401,-122.6265504,"Catholic Community Services - Max Hale Center","Red brick building is located on the corner of 5th and Pacific across form Washington Mutual Bank Building and kiddy corner of the Admiral Theater.",FALSE,
500,243,,,,"No description",,,47.5655971,-122.6294023,"Catholic Community Services - Kitsap Family Center","Located in the same side of the building as the United Way between Park Ave and Pacific Ave.  Offices are on 2nd floor at Suite 202-A",FALSE,
501,244,,,,"No description",sheriff@co.clallam.wa.us,,48.1143639,-123.4320721,"Clallam County DUI Victim's Panel","Meets in the Port Angeles City Hall in the City Council Chambers.",FALSE,
